FacilityName,lat,long,S,State,City,PrimaryRestriction,Other Requirement 1,Other Requirement 2,Other Requirement 3,Other Requirement 4,Color Coding,num_max_books,only_paperback,condition_good_used_okay,bundle,has_no_restrictions,condition_new,needs_prior_approval,hardcover_okay
Alex City Community Based Facility / Community Work Center,30.737974,-88.108942,0,Alabama,Alexander City,,,,,,,9999,False,False,False,True,False,False,False
FCI Aliceville,38.15447,-95.55193,1,Alabama,Aliceville,White envelopes only,,"No stationary, no blank greeting cards, no journals, no blank paper",,,white envelopes only,5,True,False,False,False,False,False,False
Davis Correctional ,38.550067,-121.725799,2,Alabama,Atmore,,,,,,,9999,False,False,False,True,False,False,False
Fountain Correctional ,31.156856,-87.464965,3,Alabama,Atmore,"Make sure it says: ""PO Box 3800"" in the return address.",,,,,"make sure it says: ""po box 3800"" in the return address.",9999,False,False,False,True,False,False,False
Holman Correctional ,40.672852,-111.860271,4,Alabama,Atmore,,,,,,,9999,True,False,False,False,False,False,False
Oakwood - N. Baldwin ,26.305848,-80.141044,5,Alabama,Bay Minette,,,,,,,3,True,False,False,False,True,False,False
Donaldson Correctional ,40.63592,-76.4119,6,Alabama,Bessemer,Number and Bed Assignment must be shown on address,,,,"Number and Bed Assignment must be shown on address, mark this up on letter!!!",number and bed assignment must be shown on address,4,True,False,False,False,True,False,False
Brimingham Community Based Facility,41.783084,72.046752,7,Alabama,Birmingham,,,,,,,3,True,False,False,False,False,False,False
Bibb Correctional ,32.919152,-87.163477,8,Alabama,Brent,,,,,,,9999,True,False,False,False,False,False,False
Castle Rock,39.331104,-104.848977,9,Alabama,Castle Rock,,No Sex,,,,,9999,False,False,False,False,False,False,False
Ventress Correctional ,30.683038,-91.425464,10,Alabama,Clayton,,,,,,,0,False,False,False,False,False,False,False
Easterling Correctional ,31.689222,-85.585658,11,Alabama,Clio,,,,,,,0,False,False,False,False,False,False,False
Shelby County Jail,33.18357,-86.627385,12,Alabama,Columbiana,,,,,,,0,False,False,False,False,False,False,False
Decatur Work Release ,39.84031,-88.9548,13,Alabama,Decatur,,,,,,,9999,True,False,False,False,False,False,False
Elmore Correctional (3520 Marion Spillway),32.574283,-86.320808,14,Alabama,Elmore,,,,No Sex,,,3,True,False,False,False,False,False,False
Staton Correctional (Box 56/2690 Marion Spillway),32.576807,-86.333402,15,Alabama,Elmore,,,,,,,9999,False,False,False,False,False,False,False
Limestone Correctional ,40.667339,-89.69958,16,Alabama,Harvest,,,,,,,9999,True,True,False,False,False,False,False
,18.776703,100.77522,17,Alabama,Kenai,,,,,,,5,True,True,False,False,False,False,False
Mobile Co. Jail,30.681,-88.04175,18,Alabama,Mobile,,,,,,,3,True,False,False,False,False,False,False
FPC Maxwell Air Force Base,7.312017,13.598974,19,Alabama,Montgomery,"Write: ""APPROVED READING MATERIAL"" on package.",,,,,"write: ""approved reading material"" on package.",9999,True,False,False,False,False,False,False
Montgomery City Jail,36.525922,-87.359748,20,Alabama,Montgomery,,,,,,,0,False,False,False,False,False,False,False
Kilby Correctional ,32.415738,-86.26378,21,Alabama,Mt. Meigs,,,,,,,0,False,False,False,False,False,False,False
Montegomery Women's Facility,32.613397,-82.35634,22,Alabama,Mt. Meigs,,,,,,,0,False,False,False,False,False,False,False
FCI,24.047019,84.072557,24,Alabama,Talladega,,,,,,,9999,True,False,False,False,False,False,False
Perry County Detention Center,40.405276,-77.256678,26,Alabama,Union Town,,,,,,,0,False,False,False,False,False,False,False
Tutwiler Prison for Women,32.563821,-86.19364,27,Alabama,Wetumpka,,,,,,,9999,True,False,False,False,False,False,False
ACC East,25.791058,-80.21153,28,Alaska,Anchorage,,,,,,,9999,True,False,False,False,False,False,False
Lemon Creek,49.7,-117.48333,31,Alaska,Juneau,,,,,,,0,False,False,False,False,False,False,False
Spring Creek Correctional ,43.103259,-101.038811,33,Alaska,Seward,,Publisher Only,,,,,0,False,False,False,False,False,False,False
Goose Creek Corr. Ctr,61.359964,-150.008035,34,Alaska,Wasilla,,,,,,,9999,True,False,False,False,False,False,False
Lewis Bachman Unit,47.086585,-122.577598,35,Arizona,Buckeye,,,,,,,0,False,False,False,False,False,False,False
Lewis Barchey Unit,47.086585,-122.577598,36,Arizona,Buckeye,,,,,,,0,False,False,False,False,False,False,False
Lewis Buckley Unit,47.086585,-122.577598,37,Arizona,Buckeye,,,,,,,0,False,False,False,False,False,False,False
Lewis Eagle Point Unit,42.459804,-122.803634,38,Arizona,Buckeye,,,,,,,9999,True,True,False,False,False,False,False
Lewis Morey Unit,47.086585,-122.577598,39,Arizona,Buckeye,,,,,,,0,False,False,False,False,False,False,False
Lewis Rast Unit,47.086585,-122.577598,40,Arizona,Buckeye,,,,,,,0,False,False,False,False,False,False,False
Lewis Stiner Unit,47.086585,-122.577598,41,Arizona,Buckeye,,,,,,,0,False,False,False,False,False,False,False
Lewis Sunrise Unit,46.575099,-122.392404,42,Arizona,Buckeye,,,,,,,9999,True,True,False,False,False,False,False
Yavapai Co. Det Svc ,34.566581,-112.424784,43,Arizona,Camp Verde,,,,,,,9999,True,False,False,False,False,False,False
Douglas Eggers Unit,54.15,-4.48333,44,Arizona,Douglas,,,,,,,9999,True,False,False,False,False,False,False
Douglas Gila Unit,54.15,-4.48333,45,Arizona,Douglas,,,,,,,0,False,False,False,False,False,False,False
Douglas Maricopa Unit,54.15,-4.48333,46,Arizona,Douglas,,,,,,,9999,True,False,False,False,False,False,False
Douglas Mohave Unit,54.15,-4.48333,47,Arizona,Douglas,,,,,,,9999,True,False,False,False,False,False,False
Douglas Papago Unit,54.15,-4.48333,48,Arizona,Douglas,,,,,,,9999,True,False,False,False,False,False,False
CCA/Red Rock Correctional Center ,32.808678,-111.52063,49,Arizona,Eloy,,,,,,,3,True,False,False,False,False,False,False
CCA/Saguaro Correctional Center ,32.809344,-111.526442,50,Arizona,Eloy,Holds HAWAII inmates,,,,"Waiting to see if we can get on approved sender list, for now DNS",holds hawaii inmates,9999,False,False,False,False,False,False,False
La Palma Correctional Center ,37.566652,-78.474686,51,Arizona,Eloy,,,,,,,0,False,False,False,False,False,False,False
Eyman ,39.54005,-83.445226,52,Arizona,Florence,,,,,,,0,False,False,False,False,False,False,False
Eyman Browning Unit,39.54005,-83.445226,53,Arizona,Florence,,,,,,,0,False,False,False,False,False,False,False
Eyman Cook Unit,39.54005,-83.445226,54,Arizona,Florence,,,,,"Called 1-20-21, publisher only, mike",,0,False,False,False,False,False,False,False
Eyman Meadows Unit,32.208922,-82.375843,55,Arizona,Florence,,,,,,,0,False,False,False,False,False,False,False
Florence CBK,43.779175,11.249456,56,Arizona,Florence,,,,,,,0,False,False,False,False,False,False,False
Florence Central Unit,43.779175,11.249456,57,Arizona,Florence,,,,,,,0,False,False,False,False,False,False,False
Florence East Unit,43.779175,11.249456,58,Arizona,Florence,,,,,,,0,False,False,False,False,False,False,False
Florence Kassan,43.779175,11.249456,59,Arizona,Florence,,,,,,,0,False,False,False,False,False,False,False
Florence North Unit,43.779175,11.249456,60,Arizona,Florence,,,,,,,0,False,False,False,False,False,False,False
Florence South Unit,34.182369,-79.786461,61,Arizona,Florence,,,,,"Test pkg rtn'd, verifies DNS, 9-30-20-mike",,0,False,False,False,False,False,False,False
Florence West ,34.19543,-79.76256,62,Arizona,Florence,Private CCA (no lookup),,,,,private cca (no lookup),3,True,False,False,False,False,False,False
Central Arizona C.F. ,38.29172,-91.30293,63,Arizona,Florence,,,,,,,0,False,False,False,False,False,False,False
Corizon Health 1305 Butte,36.193879,-119.312867,64,Arizona,Florence,,,,,Send to E.O. Conor,,9999,False,False,True,False,False,False,False
Federal C.C. ,9.404974,7.607418,65,Arizona,Forrest City,,,,,,,0,False,False,False,False,False,False,False
Florence Globe,43.779175,11.249456,66,Arizona,Globe,,,,,,,0,False,False,False,False,False,False,False
Florence Complex Detention,40.68922,-73.989522,67,Arizona,Goodyear,,,,,,,0,False,False,False,False,False,False,False
Florence Complex Minors,47.680014,-55.431362,68,Arizona,Goodyear,,,,,,,0,False,False,False,False,False,False,False
Florence Lumley Unit,43.779175,11.249456,69,Arizona,Goodyear,,,,,,,0,False,False,False,False,False,False,False
Florence Piestewa Unit,43.779175,11.249456,70,Arizona,Goodyear,,,,,,,0,False,False,False,False,False,False,False
Florence San Carlos Unit,43.779175,11.249456,71,Arizona,Goodyear,,,,,,,0,False,False,False,False,False,False,False
Florence San Pedro Unit,43.779175,11.249456,72,Arizona,Goodyear,,,,,,,0,False,False,False,False,False,False,False
Florence Santa Cruz Unit,43.779175,11.249456,73,Arizona,Goodyear,,,,,,,0,False,False,False,False,False,False,False
Florence Santa Maria Unit,43.779175,11.249456,74,Arizona,Goodyear,,,,,,,0,False,False,False,False,False,False,False
Florence Santa Rosa Unit,43.779175,11.249456,75,Arizona,Goodyear,,,,,,,0,False,False,False,False,False,False,False
Florence Special Management,43.779175,11.249456,76,Arizona,Goodyear,,,,,,,0,False,False,False,False,False,False,False
Florence Womens Treatment,43.779175,11.249456,77,Arizona,Goodyear,,,,,,,0,False,False,False,False,False,False,False
Navajo County Jail ,35.367143,-110.312547,78,Arizona,Holbrook,,,,,,,0,False,False,False,False,False,False,False
KIngman Cerbat Unit,37.64585,-98.11367,79,Arizona,Kingman,,,,,,,0,False,False,False,False,False,False,False
Kingman Hualapai Unit,37.64585,-98.11367,80,Arizona,Kingman,,,,,,,0,False,False,False,False,False,False,False
Marana Community Correctional Treatment ,32.41767,-111.24113,81,Arizona,Marana,,, ,,,,9999,True,False,False,False,False,False,False
4th Street Jail / Buckeye Jail ,39.270288,-77.637423,82,Arizona,Phoenix,,,,,,,0,False,False,False,False,False,False,False
Phoenix Alhambra Reception,34.078538,-118.120501,83,Arizona,Phoenix,,,,,,,0,False,False,False,False,False,False,False
Phoenix Aspen SPU,33.60503,-112.070892,84,Arizona,Phoenix,,,,,,,0,False,False,False,False,False,False,False
Phoenix B - Ward,33.60503,-112.070892,85,Arizona,Phoenix,,,,,,,0,False,False,False,False,False,False,False
Phoenix Flamenco Females,33.60503,-112.070892,86,Arizona,Phoenix,,,,,,,0,False,False,False,False,False,False,False
Phoenix Flamenco Males,33.60503,-112.070892,87,Arizona,Phoenix,,,,,,,0,False,False,False,False,False,False,False
Phoenix Inmate Worker,33.60503,-112.070892,88,Arizona,Phoenix,,,,,,,0,False,False,False,False,False,False,False
Phoenix West Phoenix West ,33.481825,-112.168204,89,Arizona,Phoenix,,,,,,,9999,True,False,False,False,False,False,False
FCI PHOENIX ,24.047019,84.072557,90,Arizona,Phoenix,,,,,,,4,True,False,False,False,False,False,False
Maricopa County Sheriffs Office ,33.604602,-111.720963,91,Arizona,Phoenix,,,,,,,0,False,False,False,False,False,False,False
Florence Picacho Unit,43.779175,11.249456,92,Arizona,Picacho,,,,no dictionary,,,3,True,False,False,False,False,False,False
Safford Ft. Grant Unit,32.62398,-109.944539,93,Arizona,Safford,,,,No Sex,,,9999,True,True,False,False,False,False,False
Safford Graham Unit,32.822054,-109.720607,94,Arizona,Safford,,,,No Sex,,,9999,True,True,False,False,False,False,False
Safford Tonto Unit,32.822054,-109.720607,95,Arizona,Safford,,,,No Sex,,,9999,True,True,False,False,False,False,False
FCI SAFFORD Federal Facility ,32.822054,-109.720607,96,Arizona,Safford,,,,,,,9999,False,False,False,True,False,False,False
Yuma Cheyenne Unit,32.553325,-114.510731,97,Arizona,San Luis,,,,,,,0,False,False,False,False,False,False,False
Yuma Cibola Unit,32.553325,-114.510731,98,Arizona,San Luis,,,,,Only from Amazon 5/31/16 meb,,0,False,False,False,False,False,False,False
Yuma Cocopah Unit,32.553325,-114.510731,99,Arizona,San Luis,,,,,,,0,False,False,False,False,False,False,False
Yuma Dakota Unit,32.553325,-114.510731,100,Arizona,San Luis,,,,,,,0,False,False,False,False,False,False,False
Yuma La Paz Unit,39.734297,-105.014378,101,Arizona,San Luis,,,,,,,0,False,False,False,False,False,False,False
Winslow Apache Unit,35.03586,-110.696972,102,Arizona,St. Johns,,,,,,,9999,True,False,False,False,False,False,False
ASPC-Tucson Catalina Unit,32.22174,-110.92648,103,Arizona,Tucson,,,"Throw out letters from ""Preston Smith""",,,,5,False,False,False,False,False,False,False
ASPC-Tucson Cimarron Unit,32.19709,-110.828987,104,Arizona,Tucson,,,,,,,0,False,False,False,False,False,False,False
ASPC-Tucson Manzanita Unit,32.19709,-110.828987,105,Arizona,Tucson,,,,,,,0,False,False,False,False,False,False,False
ASPC-Tucson Rincon Minors Unit,-34.741547,-58.389538,106,Arizona,Tucson,,,,,,,0,False,False,False,False,False,False,False
ASPC-Tucson Rincon Transitory Unit,-34.741547,-58.389538,107,Arizona,Tucson,,,,,,,0,False,False,False,False,False,False,False
ASPC-Tucson Rincon Unit,-34.741547,-58.389538,108,Arizona,Tucson,,,,,,,0,False,False,False,False,False,False,False
ASPC-Tucson SACRC Unit,31.117323,29.852075,109,Arizona,Tucson,,,,,,,0,False,False,False,False,False,False,False
ASPC-Tucson Santa Rita Unit,31.117323,29.852075,110,Arizona,Tucson,,,"Throw out letters from ""Preston Smith""",,,,5,False,False,False,False,False,False,False
ASPC-Tucson Whetstone Unit,32.19709,-110.828987,111,Arizona,Tucson,,,,,,,0,False,False,False,False,False,False,False
ASPC-Tucson Winchester Unit,32.19709,-110.828987,112,Arizona,Tucson,,,,,,,0,False,False,False,False,False,False,False
"FCI TUCSON, Federal Facility ",32.22174,-110.92648,113,Arizona,Tucson,,no sexual content,, ,,,9999,True,False,False,False,False,False,False
Satellite Prison Camp ,40.768389,-80.700439,114,Arizona,Tucson,,no sexual content,, ,"No naked women, No Breasts",,9999,True,False,False,False,False,False,False
USP TUCSON ,-21.159957,-47.865917,115,Arizona,Tucson,,,,,5/5/15 direct from publisher,,0,False,False,False,False,False,False,False
ASPC-Winslow Complex Lock-Up,33.471026,-112.440002,116,Arizona,Winslow,,,,,,,9999,False,False,False,False,False,False,False
ASPC-Winslow Coronado Unit,31.117323,29.852075,117,Arizona,Winslow,,,,,,,9999,False,False,False,False,False,False,False
ASPC-Winslow Kaibab Unit,31.117323,29.852075,118,Arizona,Winslow,,,,,,,9999,False,False,False,False,False,False,False
ASPC-Yuma Cou Unit,31.117323,29.852075,119,Arizona,Yuma,,,,,,,0,False,False,False,False,False,False,False
Clark County Jail,44.560535,-90.593561,120,Arkansas,Arkadelphia,,,,,,,0,False,False,False,False,False,False,False
East AR Region Unit,38.5,48,121,Arkansas,Brickeys,,, ,,,,9999,True,False,False,False,False,False,False
North Central Unit,39.986877,-75.164898,122,Arkansas,Calico Rock,,,,,,,9999,False,False,True,False,False,False,False
Delta Regional Unit,5.448632,5.771322,123,Arkansas,Dermott,,,,,,,9999,True,False,False,False,False,False,False
Fayetteville,35.089222,-79.020171,124,Arkansas,Fayetteville,,,,,,,9999,True,False,False,False,False,False,False
Varner SuperMax Unit,34.04237,-91.606715,125,Arkansas,Grady,,,,,,,9999,True,False,True,False,False,False,False
Cummins Unit,-34.264749,135.72295,126,Arkansas,Grady,,,,,,,9999,True,False,True,False,False,False,False
Varner Unit,34.04237,-91.606715,127,Arkansas,Grady,,,,,,,9999,True,False,True,False,False,False,False
Ouachita River Unit,32.443382,-92.159758,128,Arkansas,Malvern,,,33,,,,9999,True,False,True,False,False,False,False
 Eastern Arkansas Regional,-32.19228,26.501313,129,Arkansas,Marianna,,,"NO LARGER THAN 
9""X11"" AND 2"" THICK",,,,9999,True,False,False,False,False,False,False
Grimes Unit,30.56265,-95.985523,130,Arkansas,Newport,,,,,,,9999,True,False,True,False,False,False,False
McPherson Unit                     302 Corrections Dr,35.625992,-91.193652,131,Arkansas,Newport,,,No Compostion Books,,,,9999,True,False,True,False,False,False,False
Green County Jail,42.60001,-89.64179,132,Arkansas,Paragould,,,,,,,9999,True,False,False,False,False,False,False
Perryville Jail,37.276237,-85.896736,133,Arkansas,Perryville,,,,,,,9999,False,False,False,False,False,False,False
Pine Bluff Unit,43.058962,-89.659054,134,Arkansas,Pine Bluff,890 Freeline Dr.,,,,,890 freeline dr.,9999,False,False,False,False,False,False,False
Pine Bluff / Diagnostic Unit (RLWCF),43.058962,-89.659054,135,Arkansas,Pine Bluff,7206 W7th Ave,,,,,7206 w7th ave,9999,True,False,False,False,False,False,False
Barbara Ester Unit,14.918727,-88.18186,136,Arkansas,Pine Bluff,7500 Corrections Drive,,,,,7500 corrections drive,9999,True,False,False,False,False,False,False
Tucker Maximum Security Unit,46.987251,28.858186,137,Arkansas,Tucker,,,,,,,9999,False,False,True,False,False,False,False
Tucker Unit,39.112241,-79.570178,138,Arkansas,Tucker,,,,,,,9999,False,False,True,False,False,False,False
Wrightsville Unit,32.727242,-82.719353,139,Arkansas,Wrightsville,,,,,,,9999,False,False,True,False,False,False,False
Wrightsville Hawkins Unit for Males,34.607486,-92.191606,140,Arkansas,Wrightsville,,,,,,,9999,False,False,True,False,False,False,False
Wrightsville Hawkins Unit for Females,34.607486,-92.191606,141,Arkansas,Wrightsville,,,,,,,9999,False,False,True,False,False,False,False
Washington County Jail,44.716169,-67.459486,142,Colorado,Akron,,,,,,,0,False,False,False,False,False,False,False
Brush Correctional ,40.254618,-103.625416,144,Colorado,Brush,,,,,,,9999,False,False,False,True,False,False,False
Buena Vista Correctional Complex,38.822397,-106.115696,145,Colorado,Buena Vista,,,,,,,0,False,False,False,False,False,False,False
Burlington,43.36162,-79.796209,146,Colorado,Burlington,,"Paperback, Hardcover ok","No Sex, No Violence, ","No Gang, No True Crime",,,3,False,False,True,False,False,False,True
Arrowhead Correctional (ECC),34.254859,-117.190253,147,Colorado,Canon City,,,,,,,9999,False,False,False,False,False,False,False
Centennial Correctional ,39.586666,-104.92062,148,Colorado,Canon City,,,,,,,9999,False,False,False,False,False,False,False
Colorado State (ECC/CSP) / Colorado Territorial (CTCF),38.440653,-105.158058,149,Colorado,Canon City,,,,,,,9999,False,False,False,False,False,False,False
CO Dept of Corrections,39.048365,-95.675916,150,Colorado,Canon City,,,,,,,9999,True,False,False,False,False,False,False
Colorado Women's Correctional,38.996664,-105.547822,151,Colorado,Canon City,,,,,,,0,False,False,False,False,False,False,False
Four Mile Correctional (FMCC),38.313954,-88.654687,152,Colorado,Canon City,,,,,,,0,False,False,False,False,False,False,False
Fremont Correctional (FCF)  - Box 999,38.479432,-105.439745,153,Colorado,Canon City,,,,,,,0,False,False,False,False,False,False,False
Skyline Correctional (ECC),40.337482,-76.72338,154,Colorado,Canon City,,,,,,,9999,False,False,False,False,False,False,False
Castle Rock - Colorado,39.331104,-104.848977,155,Colorado,Castle Rock,,,,,,,9999,False,False,False,False,False,False,False
Colorado Department of Corrections,39.731276,-104.986893,156,Colorado,Colorado Springs,,,,,,,9999,True,False,False,False,False,False,False
Delta Correctional ,5.448632,5.771322,157,Colorado,Delta,,,,,,,9999,False,False,False,False,False,False,False
Denver County Jail,39.767486,-104.863939,158,Colorado,Denver,,,,,,,0,False,False,False,False,False,False,False
Denver Reception & Diagnostic Center (DRDC),39.740959,-104.985798,159,Colorado,Denver,,,,,,,4,False,False,False,False,False,False,True
Denver Women's Correctional DWCF,39.740959,-104.985798,160,Colorado,Denver,,,,,,,0,False,False,False,False,False,False,False
Willard-Cybulski,43.639004,-70.231441,161,Colorado,Enfield,,,,,,,9999,True,False,False,False,False,False,False
ADX Florence P.O. Box 8500,45.519754,-122.654951,162,Colorado,Florence,,,,,,,0,False,False,False,False,False,False,False
Fort Collins,40.542844,-105.06543,163,Colorado,Fort Collins,,,,,,,9999,False,False,False,False,True,False,False
Fort Lyon,43.69147,-70.18421,164,Colorado,Fort Lyons,,,,,,,9999,False,False,False,False,False,False,False
Glendive,47.107449,-104.706754,165,Colorado,Glendive,,,,,,,9999,False,True,False,False,False,False,False
Colorado Correctional ,38.996664,-105.547822,166,Colorado,Golden,,,,,,,9999,False,False,False,False,False,False,False
Mesa County Sheriff's Dept,41.44792,-87.371164,167,Colorado,Grand Junction,,,,,,,0,False,False,False,False,False,False,False
(Private prison),-36.758167,174.643621,168,Colorado,Hudson,,,,,,,9999,True,False,False,False,False,False,False
BCCF,38.064649,-103.204839,169,Colorado,Las Animas,,,,,,,9999,False,False,False,False,False,False,False
Net County Correctional ,24.211213,120.700511,170,Colorado,Las Animas,,,,,,,0,False,False,False,False,False,False,False
Limon Correctional ,9.99286,-83.03053,171,Colorado,Limon,,,,,,,0,False,False,False,False,False,False,False
FCI Englewood,24.047019,84.072557,172,Colorado,Littleton,"Write ""BOP approved reading material on package""","No Harry Potter, No anime, No comic books",,,,"write ""bop approved reading material on package""",5,True,False,False,False,False,False,False
Longmont,40.163537,-105.16261,173,Colorado,Longmont,,,,,,,9999,False,False,False,False,False,False,False
Trinidad Correctional,10.46114,-61.25702,174,Colorado,Model,,,,,,,9999,False,False,False,False,False,False,False
Crowley County Correctional ,38.19338,-103.860516,175,Colorado,Olney Springs,,,,,,,0,False,False,False,False,False,False,False
Pueblo Minimum Center,-7.97459,-78.410932,176,Colorado,Pueblo,,,,,,,0,False,False,False,False,False,False,False
San Carlos Correctional (for mentally ill),9.66124,-68.58268,177,Colorado,Pueblo,,,,,,,9999,False,False,False,False,False,False,False
Sterling Correctional ,42.576979,-83.033617,178,Colorado,Sterling,,,,,,,0,False,False,False,False,False,False,False
Walsenburg,37.625526,-104.782072,179,Colorado,Walsenburg,,,,,,,9999,False,False,False,True,False,False,False
Bridgeport Correctional ,41.188221,-73.187335,180,Connecticut,Bridgeport,,No Violence,No Sex,,,,5,True,False,False,False,False,False,False
Brooklyn Correctional ,40.652256,-73.956582,181,Connecticut,Brooklyn,,,,,,,9999,False,False,False,False,False,False,False
Cheshire Correctional Institution(900 Highland Ave),33.88357,-118.408689,182,Connecticut,Cheshire,,No sexualy explicit material,,,"book returned, 8-24-21 mike",,9999,True,False,False,False,False,False,False
Federal Correctional ,10,8,183,Connecticut,Danbury,,,,,,,3,True,False,False,False,False,False,False
Carl Robinson Correctional (CRCI),37.170793,-94.552292,184,Connecticut,Enfield,,,,,,,9999,False,False,False,False,False,False,False
Enfield Correctional ,51.64875,-0.0974,185,Connecticut,Enfield,,,,,,,9999,True,False,False,False,False,False,False
Willard - Cybulski Correctional ,43.639004,-70.231441,186,Connecticut,Enfield,,,,,,,9999,False,False,False,False,False,False,False
Hartford Correctional ,41.765566,-72.690228,187,Connecticut,Hartford,,,,,,,9999,True,False,False,False,False,False,False
New Haven Correctional ,41.308658,-72.925297,188,Connecticut,New Haven,,,,,,,9999,False,False,False,False,False,False,False
Garner Correctional ,35.700552,-78.618677,189,Connecticut,Newtown,,,No Sex,,,,6,False,False,False,False,False,False,False
Gates Correctional ,43.16547,-77.70066,190,Connecticut,Niantic,,,,,,,9999,False,False,False,False,False,False,False
York Correctional ,40.71427,-74.00597,191,Connecticut,Niantic,,,,,,,9999,False,False,False,False,False,False,False
Osborn Correctional Institution,47.972959,-102.423144,192,Connecticut,Somers,,,,,,,9999,True,False,False,False,False,False,False
Northern Correctional Institution,54.5,-6.5,193,Connecticut,Somers,,,,,,,9999,True,False,False,False,False,False,False
Bergin Correctional ,41.793459,-72.660573,194,Connecticut,Storrs,,,,,,,9999,False,False,False,False,False,False,False
MacDougall - Walker Correctional ,45.930982,-60.224324,195,Connecticut,Suffield,,No greeting cards,No Composition Books,"Add separate note in pkg""Books are new, perfect""",,,9999,False,False,False,False,False,False,False
Corrigan - Radgowski Correctional ,30.996028,-94.8296,196,Connecticut,Uncasville,,,,,,,9999,False,False,False,False,False,False,False
Sussex Correctional ,51.00476,-0.10069,197,Delaware,Georgetown,,No Sex,,,,,9999,False,False,False,False,False,False,False
Delores J. Baylor Women's Correctional ,39.702616,-75.581252,198,Delaware,New Castle,,,,,,,9999,False,False,False,True,False,False,False
Delaware Correctional / Vaughn Correctional ,38.978849,-75.46014,199,Delaware,Smyrna,,,Newish,,,,9999,True,False,False,False,False,False,False
John L. Webb Correctional ,39.738071,-75.627358,200,Delaware,Wilmington,,,,,,,9999,False,False,False,True,False,False,False
Howard R. Young Correctional/Multi Purpose Criminal Justice Facility,32.46855,-98.666798,201,Delaware,Wilmington,"Not larger than 8.5""x11""",,No address labels or stickers,,,"not larger than 8.5""x11""",9999,True,False,False,False,True,False,False
Avon Park Correctional ,27.661396,-81.360952,204,Florida, Avon Park,,No Sex,,,,,9999,False,False,False,False,False,False,True
Polk County Jail,34.015347,-85.217322,205,Florida,Bartow,,,,,,,0,False,False,False,False,False,False,False
Glades Correctional ,26.949386,-81.112748,206,Florida,Belle Glade,,,,,,,9999,False,False,False,False,False,False,False
Big Pine Key,24.686647,-81.367106,207,Florida,Big Pine Key,,,,,,,9999,True,False,False,False,False,False,False
Calhoun Correctional ,34.501538,-84.950448,208,Florida,Blountstown,,,Magazines okay,,,,9999,False,True,False,False,False,False,True
Holmes Correctional ,40.558439,-81.929325,209,Florida,Bonifay,,,,,,,9999,False,False,False,False,False,False,False
Hardee Correctional Institution Work Camp,29.304515,-82.188845,210,Florida,Bowling Green,,,No photocopies,No sex,,,9999,False,False,False,False,False,False,True
Bradenton Bridge,52.15042,-0.702434,211,Florida,Bradenton,,,,,,,9999,True,False,False,False,False,False,False
Liberty Correctional ,39.257248,-94.419528,212,Florida,Bristol,,,,No Sex,,,3,True,False,False,False,False,False,False
Levy Forestry Camp,41.026781,-75.713664,213,Florida,Bronson,,,,,,,9999,True,False,False,False,False,False,False
Hernando Correctional (women's),28.564204,-82.497644,214,Florida,Brooksville,,,,,,,9999,False,False,False,True,False,False,False
Flagler Co. Detention,29.45245,-81.25626,215,Florida,Bunnell,,,,,,,9999,True,False,False,False,False,False,False
Sumter Correctional ,33.932566,-80.361482,216,Florida,Bushnell,,,,,,,9999,True,False,False,False,False,False,False
Sumter Work Camp,28.613381,-82.205385,217,Florida,Bushnell,,,,,,,9999,True,False,False,False,False,False,False
Franklin Correctional ,40.495425,-74.535291,218,Florida,Carrabelle,,,No Manila Envelope,,,,9999,True,False,False,False,False,False,False
Century Correctional ,44.03425,-121.338194,219,Florida,Century,,,,,,,9999,False,False,False,False,False,False,False
River Junction Work Camp,-42.200243,145.931252,220,Florida,Chattahoochee,,,,,,,9999,True,False,False,False,False,False,False
Washington Correctional ,38.82652,-77.01712,221,Florida,Chipley,,,,,,,9999,False,False,False,False,False,False,False
Northwest Florida Reception Center,30.51782,-85.65927,222,Florida,Chipley,,,,,,,4,False,False,False,False,False,False,False
Pinellas County Jail,27.90207,-82.705654,223,Florida,Clearwater,,,,,,,0,False,False,False,False,False,False,False
Lake Correctional ,40.773201,-111.933984,224,Florida,Clermont,,No electronics books,No NPRL,,,,9999,False,False,False,False,False,False,False
Brevard Work Camp,40.027755,-90.961768,225,Florida,Cocoa,,,,,,,9999,True,False,False,False,False,False,False
Wakulla Correctional ,30.23687,-84.23101,226,Florida,Crawfordville,,,,,,,9999,False,False,True,False,False,False,False
Okaloosa Correctional ,30.696799,-86.526015,227,Florida,Crestview,,No Cook Books,,,,,9999,False,False,False,False,False,False,False
Cross City Correctional ,29.63621,-83.124996,228,Florida,Cross City,,No Sex,,,,,9999,False,False,False,False,False,False,False
Volusia County Branch Jail,29.052386,-81.156198,230,Florida,Daytona Beach,,,,,,,0,False,False,False,False,False,False,False
Walton Correctional ,51.38533,-0.42066,231,Florida,Defuniak Springs,,No blank journals,No foreign languages except spanish,No Legal Primer-1,,,9999,False,False,False,False,False,False,False
Putnam Correctional ,41.92237,-71.903487,233,Florida,East Palatka,,,,,,,9999,False,False,False,False,False,False,False
Dade Correctional ,25.415936,-80.498897,234,Florida,Florida City,Invoice must be computer printed,,,,,invoice must be computer printed,9999,False,False,False,False,True,False,False
Homestead Correctional (women's),25.460881,-80.443032,235,Florida,Florida City,,,No legal primer,no copies of 15+ pages,,,9999,False,False,False,False,False,False,False
Broward Main Jail,26.11592,-80.14253,236,Florida,Ft. Lauderdale,DNS,,,,,dns,9999,False,False,False,False,False,False,False
Conte,46.224582,7.311152,237,Florida,Ft. Lauderdale,"Write: ""c/o Chaplain Rick Braswell"" in the return address.",,,,,"write: ""c/o chaplain rick braswell"" in the return address.",9999,False,False,False,False,False,False,False
House of Hope,41.687908,-87.603802,238,Florida,Ft. Lauderdale,,,,,,,9999,False,False,False,False,False,False,False
Lucie County Jail,27.45321,-80.4099,240,Florida,Fort Pierce,,,,,,,9999,False,False,False,False,False,False,False
Gainesville Work Camp,29.309369,-82.197613,241,Florida,Gainesville,,,,,,,9999,True,False,False,False,False,False,False
Graceville,39.809,-75.54881,242,Florida,Graceville,,No Violence,"No composition books, 10 sheets of blank paper is okay in lieu of composition book",,,,4,False,False,False,False,False,False,False
Hawkinsville,41.7607,-122.62197,244,Florida,Hawkinsville,,,,,,,9999,False,False,False,False,False,True,False
Holly Hill,29.245432,-81.045946,245,Florida,Holly Hill,,,,,,,9999,False,False,False,False,False,False,False
Henry Correctional ,39.917156,-85.38568,246,Florida,Immokalee,,,,,,,9999,False,False,False,False,False,False,False
Martin Correctional ,18.082858,-63.059398,247,Florida,Indiantown,,,No Sex,no plastic pouches in book,,,9999,False,False,False,False,False,False,False
HCI,47.027952,3.143881,248,Florida,Interlachen,,,,,,,9999,False,False,False,False,False,False,False
Duval County Jail,27.76266,-98.2354,249,Florida,Jacksonville,,,,,,,0,False,False,False,False,False,False,False
Hamilton Correctional (and Annex),43.25011,-79.84963,250,Florida,Jasper,,,,,,,9999,False,False,False,False,False,False,True
Berrydale Forestry Camp,41.026781,-75.713664,251,Florida,Jay,,,,,,,9999,False,False,False,False,False,False,False
Osceola County Jail,28.086448,-81.109656,252,Florida,Kissimmee,,,,,,,0,False,False,False,False,False,False,False
Reception & Medical Center (RMC),51.395185,3.488254,253,Florida,Lake Butler,,"Composition Books NOT Allowed,","No blank paper, cards or envelopes",,,,4,False,False,False,False,False,False,False
Bridges of America Work Camp,47.976094,-121.88703,254,Florida,Lake City,,,,,,,9999,False,False,False,False,False,False,False
Columbia Correctional ,54.790277,-124.557003,255,Florida,Lake City,,No Legal Primer-1,,,,,9999,False,False,False,False,False,False,False
Pasco County Detention Ctr,28.267081,-82.671084,257,Florida,Land O Lakes,,,,,,,9999,False,False,False,False,False,False,False
Lawtey C.I.,7.568978,-5.495164,258,Florida,Lawtey,,,,,,,9999,False,False,False,False,False,False,False
Suwannee Work Camp,40.027755,-90.961768,259,Florida,Live Oak ,,,,,,,9999,False,False,False,False,False,False,False
Loxahatchee Road Prison,8.474695,-13.23597,260,Florida,West Palm Beach,,,No Sex,,,,9999,False,False,False,False,False,False,False
Marion Correctional ,40.600551,-83.131197,261,Florida,Lowell,,,,,,,9999,False,False,False,False,False,False,False
Madison Correctional ,43.081309,-89.395609,262,Florida,Madison,,,,,,,9999,True,False,False,False,False,False,False
Jackson Correctional ,32.29876,-90.18481,263,Florida,Malone,,,,,,,9999,True,False,False,False,False,False,False
Federal Prison Camp,42.880134,-97.390222,264,Florida,Marianna,,,,,,,9999,False,False,False,False,False,False,False
Mayo Correctional ,39.281077,-94.644342,265,Florida,Mayo,     ,,No Sex,,,     ,9999,True,False,False,False,False,False,False
FDC Miami / FCI,41.145987,1.104336,267,Florida,Miami,,,,,,,9999,False,False,False,False,False,False,False
South Florida PDC/RC,-12.819233,-50.657067,268,Florida,Miami,,,,,,,9999,False,False,False,True,False,False,False
Blackwater River CF,-23.579705,148.888552,270,Florida,Milton,,,No Learn How To Draw Books,No Coloring Books,,,4,False,False,False,False,False,False,False
Santa Rosa Correctional (SRCI),14.163004,-90.362039,271,Florida,Milton,Verify exact commited name,,,No photocopies,,verify exact commited name,9999,True,False,False,False,False,False,False
Monroe County Detention ,24.577053,-81.752114,272,Florida,Monroe,,,,,  ,,9999,False,False,False,False,False,False,False
Jefferson Correctional ,38.571057,-92.241927,273,Florida,Monticello,,,,,,,9999,True,False,False,False,False,False,False
Moore Haven Correctional ,26.833493,-81.097631,274,Florida,Moore Haven,,,,,,,9999,False,False,False,False,False,False,False
Naples Jail Center,40.862838,14.237375,275,Florida,Naples,,,,,,,9999,True,False,False,False,False,False,False
Florida Women's Reception Center,29.30997,-82.18702,276,Florida,Ocala,,,,,,,9999,True,False,False,False,False,False,True
Lowell Women's Correctional (LCI),32.19709,-110.828987,277,Florida,Ocala,,,No Maps,No Coloring Books,,,9999,True,False,False,False,False,False,False
"Marion Work Camp, Marion Correctional",29.304515,-82.188845,278,Florida,Ocala,"Use PO Box 158, Lowell, FL 32663-0158",,,,,"use po box 158, lowell, fl 32663-0158",9999,True,False,False,False,False,False,False
"Marion County Jail, marion County Sheriff's office",34.17175,-79.400783,279,Florida,Ocala,DNS,,,,,dns,9999,False,False,False,False,False,False,False
Okeechobee Correctional ,27.242799,-80.830148,280,Florida,Okeechobee,"No composition books, ok to send 10 sheets of blank paper in lieu of composition book",,"No How to books (drawing, elec, business, computer, etc.)",No Sex,,"no composition books, ok to send 10 sheets of blank paper in lieu of composition book",9999,False,False,False,False,False,False,True
Central Florida (CFRC),-18.122547,-63.958971,281,Florida,Orlando,"No composition books, ok to send 10 sheets of blank paper in lieu of composition book",,"No Composition Books, added 1-13-22 mike","No how to draw books, from property 8-23-21 mike",,"no composition books, ok to send 10 sheets of blank paper in lieu of composition book",9999,True,False,False,False,False,False,False
Orange County Jail,33.748883,-117.878655,282,Florida,Orlando,,,Must show cell number from database,"Send to PO Box 4970, Orlando, FL 32802-4970",,,9999,True,False,False,False,False,False,False
Bay Correctional ,30.26464,-85.505905,284,Florida,Panama City,,,,,,,9999,False,False,False,False,False,False,False
Taylor Correctional ,42.22628,-83.268812,286,Florida,Perry,,"No sex, No violence",Nothing inflammatory,No instructions for building weapons,,,9999,False,False,True,False,False,False,False
Taylor Correctional Annex,30.0415,-83.7111,287,Florida,Perry,,"No sex, No violence",Nothing inflammatory,No instructions for building weapons,,,9999,False,False,True,False,False,False,False
Monroe Correctional ,40.30461,-74.435593,288,Florida,Plantation,,,,,,,9999,True,False,False,False,False,False,False
Demilly Correctional ,50.751511,3.120521,289,Florida,Polk City,,,,,,,9999,True,False,False,False,False,False,False
Polk CI & Work Camp,37.797695,-122.422273,290,Florida,Polk City,10800 Evans Rd.,,,,,10800 evans rd.,9999,False,True,False,False,False,False,True
Charlotte Correctional ,35.19534,-80.81711,291,Florida,Punta Gorda,,,,No Sex,No Violence,,9999,True,False,False,False,False,False,False
Gadsden Correctional (women's),30.55529,-84.619685,292,Florida,Quincy ,,,No Composition Books,No Coloring Books,No Computer Books,,9999,True,False,False,False,False,False,False
Quincy Annex,10.144565,77.127757,293,Florida,Quincy ,,,No Composition Books,,,,9999,True,False,False,False,False,False,False
Florida State Prison,30.062297,-82.18166,294,Florida,Raiford,    Use PO Box 800,,,no gang or black power ,,    use po box 800,9999,True,False,False,False,False,False,False
New River Correctional ,33.911883,-112.103779,295,Florida,Raiford,"USE: PO BOX 900, Zip 32083",,Composition Books Not Permitted,,,"use: po box 900, zip 32083",9999,False,False,False,False,True,False,False
Union Correctional ,21,96,296,Florida,Raiford,USE: PO BOX 1000 & Zip Code 32083,,No Sex,,,use: po box 1000 & zip code 32083,9999,True,False,False,False,False,False,False
Hillsborough Correctional ,40.4776,-74.62682,297,Florida,Riverview,,,,,,,9999,True,False,False,False,False,False,False
St John County Detention Center,38.3029,-76.62773,298,Florida,St Augustine,,,,,,,9999,True,False,False,False,False,False,False
Baker Correctional ,30.58824,-91.16816,299,Florida,Sanderson,,,Max 1 composition book-1,Update 12-2-21-max 1 composition book-mike,,,9999,False,False,False,False,False,False,True
Smyrna,38.41273,27.13838,300,Florida,Smyrna,,,,,,,9999,True,False,False,False,False,False,False
Apalachee Correctional ,30.44054,-84.203399,301,Florida,Sneads,,,NO Foreign Language except Spanish,,,,9999,False,False,False,False,True,False,False
South Bay Correctional ,26.6577,-80.7188,302,Florida,South Bay,,,,,,,4,False,False,True,False,False,False,False
Starke,29.94726,-82.107622,303,Florida,Starke,,,,,,,9999,False,False,False,False,False,True,False
Wilcox State Prison,31.985236,-83.30064,304,Georgia,Abbeville,,,,,,,9999,False,False,False,True,False,False,False
Dougherty County Jail,31.579702,-84.152477,306,Georgia,Albany,,,,,,,0,False,False,False,False,False,False,False
Arrendale State Prison,34.45069,-83.59502,307,Georgia,Alto,,,,,,,0,False,False,False,False,False,False,False
Sumter County CI,7.568978,-5.495164,308,Georgia,Americus,,,,,,,9999,True,False,False,False,False,False,False
Fulton County Jail,33.778356,-84.423503,309,Georgia,Atlanta,,,,,,,0,False,False,False,False,False,False,False
RRM Atlanta (fed),-18.290908,35.934604,310,Georgia,Atlanta,,,,,,,0,False,False,False,False,False,False,False
"US Penitentiary / Federal Prison Camp, 
P/O. Box 150160",35.830729,-77.096909,311,Georgia,Atlanta,,,,,,,9999,True,True,False,False,False,False,False
Charles Webster Detention Ctr,38.523794,-76.984987,312,Georgia,Augusta,,"no computer generated papers, books, articles",,,,,9999,False,False,False,False,False,False,False
Phillips State Prison,34.0938,-83.91006,313,Georgia,Buford,,,,,,,9999,True,False,False,False,False,False,False
Dodge State Prison,32.394374,-83.167728,314,Georgia,Chester,,,,,,,9999,False,False,False,True,False,False,False
Mitchell CO CI,12.491246,-87.138386,315,Georgia,Camilla,,,,,,,9999,True,False,False,False,False,False,False
Jack T. Rutledge State Prison,32.495767,-84.86653,316,Georgia,Columbus,,no coloring books,,,,,9999,False,False,False,False,False,False,False
Washington State Prison,32.988284,-82.594612,317,Georgia,Davisboro,,,,,,,9999,False,False,False,True,False,False,False
Dekalb County Jail,33.775674,-84.244435,318,Georgia,Decatur,,,,,,,0,False,False,False,False,False,False,False
Putnam County Jail,41.005928,-84.039004,319,Georgia,Eatonton,,,,,,,0,False,False,False,False,False,False,False
D. Ray James Prison,30.874232,-81.979337,320,Georgia,Folkston,,,,,,,8,True,False,False,False,False,False,False
Ice Processing Center,39.760917,-104.849339,321,Georgia,Folkston,,,,,,,9999,True,False,False,False,False,False,False
Burrus Correctional,47.752725,7.504195,322,Georgia,Forsyth,,,,,,,9999,True,False,False,False,False,False,False
Coastal Correctional,52.15001,1.41469,323,Georgia,Garden City,Prior Approval unless from Amazon ,,No Photocopies,,,prior approval unless from amazon ,9999,True,False,False,False,False,False,False
Smith State Prison Glenville,31.973066,-81.915752,324,Georgia,Glennville,,"mark package ""Book Store""",,,,,9999,False,False,False,False,False,True,False
Spalding Co. CI,12.491246,-87.138386,325,Georgia,Griffin,,,,,,,9999,True,False,False,False,False,False,False
Augusta State Medical Prison,33.433639,-82.189092,326,Georgia,Grovetown,,,,,,,9999,True,False,False,False,False,True,False
Harris County Prison,32.76439,-84.86408,327,Georgia,Hamilton,,,,,,,0,False,False,False,False,False,False,False
Baldwin,38.597702,-90.544367,328,Georgia,Hardwick,,,,"No sex, no violence, no murder",,,3,True,True,False,False,False,False,False
Whitworth Women's Facility,53.65601,-2.1771,329,Georgia,Hartwell,"Prior approval, if letter does not state mail room approval has been granted to receive a book the letter is DNS",,,No GED's,"No Sex, No Violence","prior approval, if letter does not state mail room approval has been granted to receive a book the letter is dns",9999,False,False,False,False,True,True,True
Pulaski,37.050424,-80.765033,330,Georgia,Hawkinsville,,,,,,,9999,False,False,False,False,False,True,False
Telfair State Prison,32.088288,-82.909206,331,Georgia,Helena,,,,,,,9999,False,False,False,True,False,False,False
GDCP,33.221282,-84.060182,332,Georgia,Jackson,,,,,,,7,False,False,False,False,False,True,False
Jefferson CCI,38.571057,-92.241927,333,Georgia,Jefferson,,,,,,,9999,True,False,False,False,False,False,False
FCI Jessup,24.047019,84.072557,334,Georgia,Jesup,"White paper wrap ONLY, no plastic, no colored/manila env.",,,No Composition Books,No sharpie/marker,"white paper wrap only, no plastic, no colored/manila env.",5,True,False,False,False,False,False,False
Troup County Correctional ,33.031088,-85.028403,335,Georgia,LaGrange,,no prior approval,no books on tattoos,,"no violence, no sex",,9999,False,False,False,False,False,False,True
Gwinnett County Jail,33.982762,-83.978055,336,Georgia,Lawrenceville,,,,,,,0,False,False,False,False,False,False,False
Lee State Prison,31.76463,-84.19258,337,Georgia,Leesburg,,,,,,,0,False,False,False,False,False,False,False
Robert A. Deyton Facility,18.4,-73.48333,338,Georgia,Lovejoy,,,,,,,9999,True,False,False,False,False,False,False
Long State Prison,9.255596,29.795189,339,Georgia,Ludowici,,,,,,,9999,True,False,False,False,False,False,False
Bibb County Jail,32.829018,-83.637062,340,Georgia,Macon,,,,,,,0,False,False,False,False,False,False,False
Central State Prison,32.776984,-83.751936,341,Georgia,Macon,,,,,,,9999,True,False,False,False,False,False,False
CCADC,-25.514335,-49.243369,342,Georgia,Marietta,,,,,,,9999,True,False,False,False,False,False,False
Riverbend Corr. Facility,39.923584,-83.093734,344,Georgia,Milledgeville,,,,,,,9999,True,False,False,False,False,False,False
Calhoun State Prison,31.539721,-84.616819,345,Georgia,Morgan,,Paid Book Receipt,,,,,9999,False,False,False,False,False,True,False
Montgomery State Prison,32.161175,-82.568386,346,Georgia,Mt Vernon,,,,,,,9999,True,False,False,False,False,False,False
Coffee Correctional ,31.53135,-82.63724,347,Georgia,Nicholls,,,,,,,9999,False,False,False,False,False,False,False
Wayne State Prison,31.674355,-82.119991,348,Georgia,Odum,,,,,,,9999,False,False,False,True,False,False,False
Macon State Prison,32.259653,-84.091571,349,Georgia,Oglethorpe,,,no Large books,,,,3,False,False,False,False,False,False,False
Autry State Prison,31.189182,-84.144879,350,Georgia,Pelham,,,,,,,9999,False,False,False,True,False,False,False
Georgia State Prison,32.00436,-82.16449,351,Georgia,Pelham,,,,,,,0,False,False,False,False,False,False,False
Brooks County Jail,30.787402,-83.547509,352,Georgia,Quitman,,,,,,,0,False,False,False,False,False,False,False
Floyd County Prison,34.2198,-85.20024,353,Georgia,Rome,,,,,,,0,False,False,False,False,False,False,False
Costal TC,8.738585,76.701411,354,Georgia,Savannah,,,,,,,9999,True,False,False,False,False,False,False
Hancock State Prison,33.245893,-82.95079,355,Georgia,Sparta,,,,,,,8,False,True,False,False,False,False,False
Thomas County,43.43253,-84.11498,356,Georgia,Thomasville,,,,,,,9999,True,False,False,False,False,False,False
Hays State,30.122671,-97.872302,357,Georgia,Trion,,,,,,,0,False,False,False,False,False,False,False
Dooly State Prison,32.280936,-83.716157,358,Georgia,Unadilla,,,,,,,9999,False,False,False,True,False,False,False
Lowndes State Prison ,9.255596,29.795189,359,Georgia,Valdosta,,,,,,,0,False,False,False,False,False,False,False
"Valdosta State Prison (VSP, PO Box 5368)",37.969062,-121.665128,360,Georgia,Valdosta,"DO NOT USE PO BOX 310, Use PO BOX 5368",,,No Violence,,"do not use po box 310, use po box 5368",5,True,False,False,False,False,False,False
Ware State Prison,31.257013,-82.393677,361,Georgia,Waycross,,,,,,,4,False,False,False,False,False,False,False
Johnson State Prison,32.743456,-82.702589,362,Georgia,Wrightsville,,,,,,,9999,True,False,False,False,False,False,False
Halawa Correctional ,21.381902,-157.914162,363,Hawaii,Aiea,Books Not Allowed,,,,,books not allowed,9999,False,False,False,False,False,False,False
Honolulu,21.40572,-157.789396,364,Hawaii,Honolulu,,,,,,,0,False,False,False,False,False,False,False
Idah,7.10651,6.73415,365,Hawaii,Idah,,,,,,,9999,False,False,False,False,False,False,False
Idaho Correctional Center (ICC) - CCA / ICC/ Idaho State Correctional Center (ISCC),37.566652,-78.474686,366,Idaho,Boise,,,,No Sex,No Violence,,9999,True,True,False,False,False,False,False
Idaho Maximum Security (IMSI),45.859471,-115.320459,367,Idaho,Boise,,,,No Sex,No Violence,,9999,True,True,False,False,False,False,False
Idaho State Correctional (ISCI),45.859471,-115.320459,368,Idaho,Boise,"PO Box 14 (mailing) / 13500 S. Pleasant Valley Rd, Kuna, ID 83634 (physical)",,,No Sex,No Violence,"po box 14 (mailing) / 13500 s. pleasant valley rd, kuna, id 83634 (physical)",9999,True,True,False,False,False,False,False
South Idaho Correctional (SICI),-12.819233,-50.657067,370,Idaho,Boise,,,,No Sex,No Violence,,9999,True,True,False,False,False,False,False
ADA CJ,43.458474,-116.23593,371,Idaho,Boise,,,,No Sex,No Violence,,9999,True,True,False,False,False,False,False
Mini Cassia Criminal Justice Center,32.816329,-96.950672,372,Idaho,Burley,,,,,,,9999,True,False,False,False,False,False,False
North Idaho Correctional ,38.309137,-101.328273,373,Idaho,Cottonwood,,,,,,,9999,False,False,False,False,False,False,False
Adams County Jail,39.85872,-77.15774,374,Idaho,Council,,,,No Sex,No Violence,,9999,True,False,False,False,True,False,False
Idaho Correctional ,45.859471,-115.320459,377,Idaho,Orofino,,,,,,,9999,False,True,False,False,False,False,False
Pocatello Women's Correctional ,42.864995,-112.439298,378,Idaho,Pocatello,,,,,,,9999,False,False,False,False,False,False,False
St. Anthony Work Camp,44.394758,-72.027948,379,Idaho,St. Anthony,,,,,,,9999,True,False,False,False,True,False,False
Chain O'Lakes Correctional ,41.337469,-85.353101,380,Indiana,Albion,,,,,,,9999,False,False,False,True,False,False,False
Anamosa,42.111254,-91.280263,381,Indiana,Anamosa,,,,,,,9999,False,False,False,False,False,False,False
Miami Correctional ,10.96389,-74.79639,382,Indiana,Bunker Hill,,,,,,,0,False,False,False,False,False,False,False
Branchville Correctional Facility,41.261394,-73.450539,383,Indiana,Branchville,,,,,,,9999,True,False,False,False,False,False,False
Wabash Valley Correctional ,39.467881,-87.396129,384,Indiana,Carlisle,,,,,,,0,True,True,False,False,False,False,False
4th St Jail,39.270288,-77.637423,385,Indiana,Connersville,,,,,,,0,False,False,False,False,False,False,False
Atterbury & Edinburgh Correctional,40.06088,-89.92372,386,Indiana,Edinburgh,,,,,,,9999,False,False,False,True,False,False,False
Elkhart County Correction ,41.597228,-85.858811,387,Indiana,Elkhart,,,,,,,9999,True,False,False,False,False,False,False
Putnamville Correctional ,42.587793,-70.936525,388,Indiana,Greencastle,,,,,,,9999,True,False,False,False,False,False,False
Henryville Correctional ,44.672454,-95.055945,389,Indiana,Henryville,,,,,,,9999,False,False,False,True,False,False,False
Indianapolis Men's (or Women's) Work Release,39.785871,-86.143415,390,Indiana,Indianapolis,,,,,,,9999,False,False,False,True,False,False,False
Marion County Jail,39.765966,-86.153156,391,Indiana,Indianapolis,,,,,,,0,False,False,False,False,False,False,False
Indiana Women's Prison,39.80142,-86.292,392,Indiana,Indianapolis,,,,,,,9999,False,False,False,False,False,False,False
Lagrange County Jail,41.642627,-85.426487,393,Indiana,Lagrange,,,,,,,0,False,False,False,False,False,False,False
Medaryville Correctional ,41.080588,-86.890388,394,Indiana,Medaryville,,,,,,,9999,False,False,False,True,False,False,False
Indiana State Prison,41.703416,-86.917339,395,Indiana,Michigan City,,,,,,,0,False,False,False,False,False,False,False
Lakeside Correctional ,30.136823,-81.770831,396,Indiana,Michigan City,,,,,,,9999,False,False,False,True,False,False,False
New Castle Correctional ,39.962623,-85.370935,397,Indiana,New Castle,,,,,,,0,False,False,False,False,False,False,False
Pendleton Correctional / Correctional Industrial ,39.982605,-85.759773,398,Indiana,Pendleton,,VERY restrictive,,,,,0,False,False,False,False,False,False,False
Plainfield Correctional ,40.613716,-74.411909,399,Indiana,Plainfield,,,,,,,9999,True,False,False,False,False,False,False
South Bend Work Release,41.666386,-86.267592,402,Indiana,South Bend,,,,,,,9999,False,False,False,True,False,False,False
FCI (PO Box 33),24.047019,84.072557,403,Indiana,Terre Haute,,,,No Magazines,,,9999,True,False,False,False,True,False,False
US Penitentiary (PO Box 12015),48.998589,-122.265658,404,Indiana,Terre Haute,,,,No Magazines,,,9999,True,False,False,False,True,False,False
Wigo County Jail ( 2001 Cherry St),41.761841,-93.828255,405,Indiana,Terre Haute,,,,,,,0,False,False,False,False,False,False,False
Porter County Jail,41.46615,-87.05947,406,Indiana,Valparaiso,,,,,,,0,False,False,False,False,False,False,False
Daviess County Security Center,38.862455,-86.482328,407,Indiana,Washington,,,,,,,9999,True,False,False,False,False,False,False
Maximum Control ,46.987251,28.858186,408,Indiana,Westville,,,,,,,0,False,False,False,False,False,False,False
Anamosa State Penitentiary,42.111263,-91.290241,409,Iowa,Anamosa,,,,No Composition books,Updated w/Nicki in the mail room 12-2-21 mike,,9999,False,False,False,False,True,False,True
Cherokee,42.75128,-95.555309,410,Iowa,Cherokee,,No Magazines,,,,,9999,False,False,False,False,False,False,False
Clarinda Correctional ,-37.948847,145.107734,411,Iowa,Clarinda,,,,,,,9999,False,False,False,False,False,False,False
Iowa Medical & Classification Center,41.582916,-93.715409,412,Iowa,Coralville,,,,,,,9999,False,False,False,False,False,False,False
RCF,45.413575,4.399602,413,Iowa,Council Bluffs,,,,,,,9999,True,False,False,False,False,False,False
Fort Dodge Correctional ,42.484668,-94.195011,414,Iowa,FortDodge,,,,,,,9999,False,False,False,False,False,False,False
Iowa State Penitentiary,40.633832,-91.296355,415,Iowa,Fort Madison,DNS,,,,Confirm DNS 2-8-22 mike,dns,9999,False,False,False,False,False,False,False
Luster Heights,43.145426,-91.184565,416,Iowa,Harper's Ferry,,,,,,,9999,False,False,False,False,False,False,False
Iowa Correctional - Women,41.686692,-92.06551,417,Iowa,Mitchellville,,,,,,,9999,False,False,False,False,False,False,False
Mt. Pleasant Correctional ,32.904764,-79.789035,418,Iowa,Mt Pleasant,,,,,,,9999,False,False,False,False,False,False,False
Newton Correctional ,42.33704,-71.20922,419,Iowa,Newton,,,,,,,9999,False,False,False,False,True,False,False
North Central Correctional ,39.986877,-75.164898,420,Iowa,Rockwell City,,,,From block captain,DNS 6-1-21 mike,,0,False,False,False,False,False,False,False
El Dorado Correctional Facility,38.66443,-121.052009,421,Kansas,El Dorado,,,,,,,9999,False,True,False,False,False,False,True
Ellsworth,44.5868,-68.478432,422,Kansas,Ellsworth,,,,,,,0,False,False,False,False,False,False,False
Lyon County Jail,38.402928,-96.179271,423,Kansas,Emporia,,,,,,,0,False,False,False,False,False,False,False
Joint Regional Correctional Facility-(Military),39.373355,-94.944044,424,Kansas,Fort Leavenworth,"Must Verify By Phone Call, No Database",,No sex,,,"must verify by phone call, no database",4,False,False,False,False,False,False,False
US Disciplinary Barracks (USDB),39.378622,-94.937279,425,Kansas,Fort Leavenworth,"Must Verify By Phone Call, No Database",,,,,"must verify by phone call, no database",4,False,False,False,False,False,False,False
Hutchinson,40.913832,-73.829469,426,Kansas,Hutchinson ,,,,,,,0,False,False,False,False,False,False,False
Reno County Jail,38.0539,-97.93679,427,Kansas,Hutchinson ,,,,,,,0,False,False,False,False,False,False,False
MCJ,11.233948,-72.493051,428,Kansas,Independence,,,,,,,0,False,False,False,False,False,False,False
Lansing Correctional ,42.709295,-84.549973,429,Kansas,Lansing ,,,,,,,9999,False,False,False,False,False,False,False
Larned Correctional,38.226685,-99.072646,430,Kansas,Larned,,No Sex,,,,,9999,False,False,False,False,False,False,False
Leavensworth Detention ,14.905786,105.0696,431,Kansas,Leavenworth,,,,,,,9999,True,False,False,False,False,False,False
USP Leavensworth,-21.159957,-47.865917,432,Kansas,Leavenworth,,,,,,,9999,False,True,False,False,False,False,False
Linn County Jail,44.630329,-123.096739,433,Kansas,Mound City,,,,,,,0,False,False,False,False,False,False,False
NCF,45.471842,7.923365,434,Kansas,Norton,,,,,,,9999,True,False,False,False,False,False,False
Johnson Co. Jail,38.837428,-94.906818,435,Kansas,Olathe,,,,,,,9999,True,False,False,False,True,False,False
OCF,29.19339,-82.136635,436,Kansas,Oswego,,,,,,,9999,True,False,False,False,False,False,False
Saline County Jail,38.8448,-97.61398,437,Kansas,Salina,,,,,,,0,False,False,False,False,False,False,False
Hamilton County Sheriff,43.25011,-79.84963,439,Kansas,Syracuse,,,,,,,0,False,False,False,False,False,False,False
Sedgewick County Jail,45.145908,-95.013124,440,Kansas,Wichita,,,,,,,0,False,False,False,False,False,False,False
Wichita Work Release,33.985095,-98.703645,441,Kansas,Wichita,,,,,,,9999,False,False,False,False,True,False,False
Winfield Correctional ,37.23975,-96.99559,442,Kansas,Winfield,,,,,,,9999,True,False,False,False,False,False,False
FCI Ashland,24.047019,84.072557,443,Kentucky,Ashland,,,White Envelopes Only,Hand Letter Return Address,,,9999,True,False,False,False,True,False,False
Lee Adjustment Center Correctional ,37.615574,-77.33902,444,Kentucky,Beattyville,,,,,,,9999,True,False,False,False,False,False,False
NTC,28.087673,-82.768782,445,Kentucky,Burgin,Use: PO Box 479 and Zip Code 40310,,,,,use: po box 479 and zip code 40310,9999,True,False,False,False,False,False,False
Green River Correctional Complex,37.314884,-87.113018,446,Kentucky,Central City,,,,,,,9999,False,False,False,True,False,False,False
Kentucky State Prison,37.696825,-84.924095,447,Kentucky,Eddyville,,,,,,,0,False,False,False,False,False,False,False
WKCC,38.33841,-82.94378,448,Kentucky,Fredonia,,,,,,,9999,True,False,False,False,False,False,False
USP Big Sandy,-21.159957,-47.865917,449,Kentucky,Inez,,,,,,,0,False,False,False,False,False,False,False
Kentucky State Reformatory,37.696825,-84.924095,450,Kentucky,LaGrange,,,,,,,0,True,False,False,False,False,False,False
Luther Luckett Correctional Complex,38.4124,-85.42542,451,Kentucky,LaGrange,Must Call to Verify Book Picks,,,,,must call to verify book picks,9999,True,False,False,False,False,False,False
Grayson County Detention Center,37.489499,-86.270065,452,Kentucky,Leitchfield,,,No magazines,,,,9999,True,False,False,False,False,False,False
Federal Medical Center,6.48398,3.380648,453,Kentucky,Lexington,,,,,,,9999,True,False,False,False,False,False,False
Calloway County Jail,36.625056,-88.272195,454,Kentucky,Murray,,,,,,,0,False,False,False,False,False,False,False
KCIW,33.98253,-112.739622,455,Kentucky,Pewee Valley,,,,,,,9999,True,False,False,False,False,False,False
USP - McCreary,36.688456,-84.387193,456,Kentucky,Pine Knot,"Write: ""AUTHORIZED
 READING MATERIAL""
 on package.",,"White paper wrap only, no labels or stickers",,"Hand letter address and return address, blue or black ink only","write: ""authorized
 reading material""
 on package.",9999,True,False,False,False,False,False,False
DCDC,51.602415,-1.639731,457,Kentucky,Sparta,,,,,,,9999,True,False,False,False,False,False,False
LSCC,38.133896,-83.080507,458,Kentucky,Sandy Hook,,,,,,,9999,True,False,False,False,False,False,False
SSCC,-25.275375,-57.5596,460,Kentucky,Wheelwright,,,,"No Free Books, Prisoners must purchase",,,0,False,False,False,False,False,False,False
Eastern KY CC,44.7683,-85.584464,461,Kentucky,West Liberty,,,,,,,9999,True,False,False,False,True,False,False
RCC,33.916958,-117.568809,462,Louisiana,Angie,,,,,,,9999,False,False,True,False,False,False,False
LA State Prison,9.255596,29.795189,463,Louisiana,Angola," Write: ""FREE BOOKS"" on package.",,No Sex,No Maps,," write: ""free books"" on package.",9999,False,False,False,False,False,False,False
South Louisiana Correctional Facility ,39.433258,-91.070236,464,Louisiana,Basile,,,,,,,9999,True,False,False,False,False,False,False
East Baton Rouge Parish Prison,30.542141,-91.095604,465,Louisiana,Baton Rouge,,,,,,,0,False,False,False,False,False,False,False
LA Dept Correction,42.129289,-71.484233,466,Louisiana,Baton Rouge,,,,,,,9999,True,False,False,False,False,False,False
Caldwell Parish Jail,32.093251,-92.143254,467,Louisiana,Columbia,,,,,,,0,False,False,False,False,False,False,False
AVC,38.524096,-122.798061,468,Louisiana,Cottonport,,,,,,,0,False,False,False,False,False,False,False
St. Tammany Parish Jail,30.408462,-89.990962,469,Louisiana,Covington,,,,,,,0,False,False,False,False,False,False,False
River Correctional Center,37.566652,-78.474686,470,Louisiana,Ferriday,,,,,,,9999,True,False,False,False,False,False,False
Caldwell Correctional Center,37.566652,-78.474686,471,Louisiana,Grayson,,,,,,,0,False,False,False,False,False,False,False
Jefferson Parish CC,29.553241,-90.074606,472,Louisiana,Gretna,,,No Sex,,,,9999,True,False,False,False,False,False,False
DWCC,12.961223,77.640375,473,Louisiana,Homer,,,,,,,9999,True,False,False,False,True,False,False
DCI,44.554064,6.260153,474,Louisiana,Jackson,,,,,,,9999,True,False,False,False,False,False,False
Jackson Parish Correctional Center,30.56197,-92.79012,475,Louisiana,Jonesboro,,,,,,,0,False,False,False,False,False,False,False
Catahoula CC,31.759005,-91.863752,476,Louisiana,Harrisonburg,,,,,,,9999,True,False,False,False,False,False,False
Allen Correctional Center,37.566652,-78.474686,477,Louisiana,Kinder,,,,,,,9999,True,False,False,False,False,False,False
Lafayette Parish Correctional Center,30.56197,-92.79012,478,Louisiana,Lafayette,,,,,,,9999,True,False,False,False,False,False,False
Calcasiew Corr. Center,-33.756211,150.737685,479,Louisiana,Lake Charles,"Write 
""FREE BOOKS"" 
on package",,,No Sex,No Violence,"write 
""free books"" 
on package",9999,True,False,False,False,True,False,False
Riverbend Detention Center,14.905786,105.0696,480,Louisiana,Lake Providence,,,,,,,9999,True,False,False,False,False,False,False
Ouachita PCC,32.443382,-92.159758,483,Louisiana,Monroe,,,,,,,0,False,False,False,False,False,False,False
Richwood Correctional Center,37.566652,-78.474686,484,Louisiana,Monroe,,,,,,,9999,True,False,False,False,False,False,False
JB Evans Correctional ,17.066565,-96.7213,485,Louisiana,Newellton,,,,,,,9999,True,False,False,False,False,False,False
LaSalle Corr. Inst.,42.693719,-73.684454,486,Louisiana,Olla,,,,,,,9999,True,False,False,False,False,False,False
Bossier Max Security,32.670452,-93.600589,487,Louisiana,Plain Dealing,,,,,,,9999,True,False,False,False,False,False,False
PPDC,47.153537,-1.504684,488,Louisiana,Pointe a-la-Hache,,,,,,,9999,True,False,False,False,False,False,False
USP Pollock,31.469033,-92.438498,489,Louisiana,Pollock,"Letter must include mail room approval form for max 5 book, max 3 pound package, include copy of form in pkg",,"No labels, hand letter return address","No manila envelopes, white only",No odor/fragrance on correspondance,"letter must include mail room approval form for max 5 book, max 3 pound package, include copy of form in pkg",5,True,False,False,False,False,False,False
Richland Parish Detention Center,32.447403,-91.767978,490,Louisiana,Rayville,,,,,,,0,True,False,False,False,False,False,False
Richwod CC,52.277821,8.024881,491,Louisiana,Richwood,,,,,,,9999,True,False,False,False,False,False,False
CADDO Correctional ,32.570105,-93.90208,492,Louisiana,Shreveport,,,,,,,0,False,False,False,False,False,False,False
Hancock SP,-22.154376,-48.428808,493,Louisiana,Sparta,,,,,,,9999,True,False,False,False,False,False,False
Elayn Hunt Correctional,30.264222,-91.085431,495,Louisiana,St Gabriel,,,,,,,9999,True,False,False,False,False,False,False
LCIW,34.253237,-82.145703,496,Louisiana,St Gabriel,,,,,,,9999,True,False,False,False,False,False,False
Parish Prison,29.96159,-90.09162,497,Louisiana,St. Tamany,,,,,,,9999,True,False,False,False,False,False,False
Madison Parish Detention,32.382959,-91.26846,498,Louisiana,Tallulah,,,,,,,0,False,False,False,False,False,False,False
Tensas Parish Detention Center,31.808681,-91.396953,499,Louisiana,Waterproof,,,No sex,No violence,,,9999,True,False,False,False,False,False,False
Winnfield Correctional ,31.921841,-92.642093,500,Louisiana,Winnfield,,,,,,,9999,True,False,False,False,True,False,False
York County,44.00011,-79.46632,501,Maine,Alfred,,,,,,,0,False,False,False,False,False,False,False
Mountain CF,17.08333,121.16667,502,Maine,Charleston,,,,,,,9999,False,False,False,False,False,False,False
Piscataquis County Jail,45.183111,-69.224767,503,Maine,Dover-Foxcroft,,No ID# is okay,,,,,3,False,False,False,False,False,False,False
Maine State Prison,44.065532,-69.230603,504,Maine,Warren,,,,,,,0,False,False,False,False,False,False,False
Maine Correctional ,42.030806,-87.864294,505,Maine,Windham,,,,,,,0,False,False,False,False,False,False,False
FCI Cumberland,24.047019,84.072557,506,Maryland,Cumberland,,,,,,,9999,True,True,False,False,False,False,False
North Branch Correctional Institution (NBCI),45.513804,-92.960121,507,Maryland,Cumberland,,,,Plastic envelopes OK,,,9999,True,True,True,False,False,False,False
Western Correctional Institution (WCI)              13800 McMullen Hwy,39.609274,-78.813902,508,Maryland,Cumberland,,,,Plastic envelopes OK,,,9999,True,True,True,False,False,False,False
MCI,47.269275,11.398677,509,Maryland,Hagerstown,SDIC and DOC number required,,No more than 20 pages of copied material,,,sdic and doc number required,9999,True,False,False,False,False,False,False
RCI,39.932687,-86.234833,510,Maryland,Hagerstown ,SDIC and DOC number required,,No more than 20 pages of copied material,,,sdic and doc number required,9999,True,False,False,False,False,False,False
Jessup,31.599139,-81.889769,511,Maryland,Jessup,,,,,,,9999,False,False,False,False,False,False,False
Eastern CI,-36.075643,146.942185,512,Maryland,Westover,,,New hardcover okay,"No Highlighter, Under lining okay",,,9999,False,True,False,False,False,False,False
Prince George's,53.919306,-122.787495,513,Maryland,Upper Marlboro,no white envelopes,,,,,no white envelopes,9999,False,False,False,False,False,False,False
Federal Medical Center (FMC),6.48398,3.380648,514,Massachusetts,Ayer,,,No Sex,,,,9999,True,False,False,False,False,False,False
Billerica HOC,42.559372,-71.268269,515,Massachusetts,Billerica,,,,,Internet Orders Only,,0,False,False,False,False,False,False,False
South Bay House of Corrections,-42.422765,173.682273,516,Massachusetts,Boston,,,No Notebooks,,,,9999,True,False,False,False,False,False,False
"Suffolk House of Corrections, 200 Nashua St",42.36721,-71.06626,517,Massachusetts,Boston,,,,,,,6,False,False,False,False,True,False,False
Barnstable County C.F.,6.986429,21.668827,518,Massachusetts,Bourne,,,,,,,9999,True,False,False,False,False,False,False
Bridgewater State,40.60079,-74.64815,519,Massachusetts,Bridgewater,,No Sex,,,,,9999,False,False,False,False,False,False,False
MCI - Concord,42.464597,-71.396117,520,Massachusetts,Concord,,,,,,,9999,False,False,False,False,False,False,False
Norfolk County House of Corrections,42.332922,-71.070939,521,Massachusetts,Dedham,,,,,,,0,False,False,False,False,False,False,False
SMCC (South Middlesex),42.265344,-71.405927,522,Massachusetts,Framingham,,,,,,,9999,False,False,False,False,False,False,False
MCI - Framingham,42.269069,-71.407553,523,Massachusetts,Framingham,,,,,,,9999,False,False,False,False,False,False,False
North Central Correctional (NCCI),39.986877,-75.164898,524,Massachusetts,Gardner,,,,,,,9999,False,False,True,False,False,False,False
Hampden Correctional CC,42.203102,-72.51261,525,Massachusetts,Ludlow,"MUST CALL TO VERIFY, NO PUBLIC DATABASE",,,"Verify w/ Renee in mailroom 413-547-8000 ext-2196, 3-17-21 mike",Updated w/Admin. Office 3-17-21 mike,"must call to verify, no public database",4,False,False,False,False,True,False,False
Essex County Sheriff's Office,37.929258,-76.85678,526,Massachusetts,Middleton,,,,,,,0,False,False,False,False,False,False,False
Bristol County Sheriff's Office,41.66552,-70.99562,527,Massachusetts,New Bedford,,,,,,,0,False,False,False,False,False,False,False
MCI - Norfolk,42.117523,-71.304769,528,Massachusetts,Norfolk,,,,,"Used books returned, spoke w/mail rm, new only, 3-8-21 mike",,9999,False,False,False,False,True,False,False
Bristol County Jail ,41.669478,-71.275059,529,Massachusetts,North Dartmouth,,,,,,,0,False,False,False,False,False,False,False
Hampshire County Jail,42.30779,-72.6591,530,Massachusetts,North Hampton,,,,,,,0,False,False,False,False,False,False,False
Berkshire County Correctional ,42.331566,-73.234284,531,Massachusetts,Pittsfield,,,,,,,0,False,False,False,False,False,False,False
Plymouth County House of Corrections,42.332922,-71.070939,532,Massachusetts,Plymouth,,,,,,,0,False,False,False,False,False,False,False
MCI - Plymouth,41.946026,-70.947201,533,Massachusetts,S. Carver,,,,,,,9999,False,False,False,False,False,False,False
MCI - Cedar Junction,42.105717,-71.287603,534,Massachusetts,S. Walpole,,,,,"Used books returned, spoke w/mail rm, new only, 3-8-21 mike",,9999,False,False,False,False,True,False,False
"MCI Shirley, P.O. Box 8000",42.526814,-71.653365,535,Massachusetts,Shirley,,,,,,,9999,False,False,False,False,False,False,False
Souza-Baranowski Correctional (SBCC),42.523502,-71.648334,536,Massachusetts,Shirley,,,,,,,9999,False,False,False,False,False,False,False
Worcester County Jail & House of Corrections,38.16994,-75.37578,537,Massachusetts,West Boylston,,,,No used Books,Updated w/mail room 10-15-21 mike,,4,False,False,False,False,True,False,False
Northeastern Correctional (NECC),42.471407,-71.395926,538,Massachusetts,West Concord,,,,,,,0,False,False,False,False,False,False,False
Westborough State Hospital,42.3012,-71.60802,539,Massachusetts,Westborough,,,,,,,9999,False,False,False,False,False,False,False
Prairie Correctional ,32.529718,106.802874,540,Minnesota,Appleton,,,,,,,9999,False,False,False,False,False,False,False
MCF - Stillwater ,38.418071,141.332765,541,Minnesota,Bayport,,,,,,,9999,False,False,False,False,False,True,False
FPC Duluth - Federal ,7.312017,13.598974,542,Minnesota,Duluth,,,,,,,9999,False,False,False,False,False,False,False
MCF - Faribault ,38.418071,141.332765,543,Minnesota,Faribault,,,,,,,9999,False,False,False,False,False,False,False
Lino Lakes,45.153528,-93.107605,544,Minnesota,Lino Lakes,,,,,,,5,False,False,False,False,False,False,False
MCF - Rush City ,38.418071,141.332765,546,Minnesota,Rush City,,,,,,,9999,False,False,False,False,False,False,False
FCI Sandstone - Federal ,24.047019,84.072557,547,Minnesota,Sandstone," Write: ""AUTHORIZED READING MATERIAL"" on package.",,,,," write: ""authorized reading material"" on package.",5,True,False,False,False,False,False,False
Minnesota Correctional Facility,46.63636,-94.579641,548,Minnesota,Shakopee,,,,,,,9999,True,False,False,False,False,False,False
MCF - St. Cloud,47.562013,14.18102,549,Minnesota,St. Cloud,,,,,,,0,False,False,False,False,False,False,False
MCF - Oak Park Heights ,45.025415,-92.800627,550,Minnesota,Stillwater,,No Magazines,,,,,9999,False,False,False,False,False,False,False
FCI Waseca - Federal ,44.083002,-93.505045,551,Minnesota,Waseca,,,,,Updated 1-24-22 mike,,5,False,False,False,False,False,False,True
Rankin County Jail,32.250684,-89.940861,552,Mississippi,Brandon,,,,,,,0,False,False,False,False,False,False,False
Northern Mississippi Satellite Facility,54.5,-6.5,553,Mississippi,Bythalia,,,,,,,9999,True,False,False,False,False,False,False
Leake County Correctional ,32.753707,-89.524063,554,Mississippi,Carthage,,,,,,,0,False,False,False,False,False,False,False
Cleveland,41.496551,-81.65133,555,Mississippi,Cleveland,,,,,,,9999,False,False,False,False,False,False,False
Marion / Walthall Correctional ,40.600551,-83.131197,556,Mississippi,Columbia,,,,,,,9999,False,False,False,True,False,False,False
Jefferson / Franklin County Correctional ,38.571057,-92.241927,559,Mississippi,Fayette,,,,,,,0,False,False,False,False,False,False,False
Delta Correctional,5.448632,5.771322,561,Mississippi,Greenwood,,,,,,,9999,True,False,False,False,False,False,False
Grenada County Jail,33.787168,-89.833519,562,Mississippi,Grenada,,,,,,,0,False,False,False,False,False,False,False
Harrison County Adult Detention Center,31.629089,-89.182014,563,Mississippi,Gulfport,,,,,,,0,False,False,False,False,False,False,False
Chickasaw County RCF,33.941568,-88.952347,565,Mississippi,Houston,,,,,,,9999,True,False,False,False,False,False,False
Attala County Jail,33.108169,-89.581571,566,Mississippi,Kosciusko,,,,,,,0,False,False,False,False,False,False,False
LCF,44.973941,-93.218422,567,Mississippi,Lansing,,,,,,,9999,True,False,False,False,False,False,False
South Mississippi Correctional (SMCI),-12.819233,-50.657067,568,Mississippi,Leakesville,,,,,,,0,False,False,False,False,False,False,False
WCCRCF (Winston County),34.148336,-87.373721,570,Mississippi,Louisville,send to 22062 Hwy 25 North,,,,updated address 8/14/20 mike,send to 22062 hwy 25 north,9999,True,False,False,False,False,False,False
GCR Correctional Facility ,40.797814,-73.950594,571,Mississippi,Lucedale,,Send c/o Chaplain,,,,,9999,False,False,True,False,False,False,False
Issaquena County Correctional ,32.90009,-91.04881,572,Mississippi,Mayersville,,,,,,,3,False,False,False,False,False,False,False
East Mississippi Correctional ,36.77943,-89.381681,573,Mississippi,Meridian,,,No Electrical/Wiring books,,,,9999,True,False,False,False,False,False,False
Central Mississippi Correctional ,-0.652954,36.91156,575,Mississippi,Pearl,,,No elastic bands - - Use clear envelopes only,"No Legal, No Medical, No How-to-books",No Violence,,9999,True,False,True,False,False,False,False
Tallahatchie County Correctional ,34.02704,-90.44593,578,Mississippi,Tutwiler,,,,,,,0,False,False,False,False,False,False,False
Carroll / Montgomery Correctional CMRCF,39.341364,-94.728018,579,Mississippi,Vaiden,,,,,,,9999,True,False,False,False,False,False,False
Carroll / Montgomery Correctional CMRCF,39.341364,-94.728018,579,Mississippi,Vaiden,,,,,,,9999,True,False,False,False,False,False,False
County Regional Correctional (SCRCF),33.769076,-90.805241,582,Mississippi,Wiggins,,,,,,,9999,False,False,False,False,True,False,False
Wilkinson County Correctional ,31.177904,-91.287551,583,Mississippi,Woodville,,,,,,,9999,True,False,False,False,False,False,False
USP Yazoo City,32.880387,-90.400483,584,Mississippi,Yazoo City,,,No Sex,,,,9999,True,False,False,False,False,False,False
FCI - Yazoo City,32.880387,-90.400483,585,Mississippi,Yazoo City,,,No Sex,,,,9999,True,False,False,False,False,False,False
Yazoo County CF,6.986429,21.668827,586,Mississippi,Yazoo City,,,,,,,9999,True,False,False,False,False,False,False
"Eastern Reception, Diagnostic & Correction ",-32.19228,26.501313,587,Missouri,Bonne Terre,,,,,,,0,False,False,False,False,False,False,False
Booneville Corr Ctr,-33.756211,150.737685,588,Missouri,Booneville,,,,,They don't take from used bookstores,,0,False,False,False,False,False,False,False
Northeast Correctional ,47.058451,-122.884834,589,Missouri,Bowling Green,,,no bubble wrap,,,,9999,False,False,False,False,True,False,False
Cross Roads Correctional ,17.99454,-76.7881,590,Missouri,Cameron,,,,,,,9999,True,False,False,False,True,False,False
Western Missouri Corrections Center,38.765653,-93.722178,591,Missouri,Cameron,,,,,"No composition books, 8-23-21 mike",,9999,True,False,False,False,True,False,False
South East Correctional ,-24.929196,25.73749,592,Missouri,Charleston,,,,,,,0,False,False,False,False,False,False,False
Chillicothe Correctional ,39.793307,-93.553298,593,Missouri,Chillicothe,,,,,,,9999,False,False,False,True,False,False,False
Bates County Jail,38.256818,-94.332598,594,Missouri,Clinton,,,,,,,0,False,False,False,False,False,False,False
Farmington Correctional ,42.498741,-83.377923,595,Missouri,Farmington,,"no murder, no sexually
explicit","No Laurell Hamilton
books",,,,9999,True,False,False,False,False,False,False
TCCC,-23.365133,-51.898532,596,Missouri,Forsyth,,,,No Sex,No Violence,,9999,True,True,False,False,False,False,False
Fulton State Hospital,38.84705,-91.93778,597,Missouri,Fulton,,,,,,,9999,False,False,False,False,False,False,False
Texas County Jail,36.66851,-101.48075,598,Missouri,Houston,,,,,,,0,False,False,False,False,False,False,False
Algoa Correctional ,29.40246,-95.16938,599,Missouri,Jefferson City,,,,,,,9999,False,False,False,False,False,False,False
Jefferson City Correctional,46.384947,-112.030477,600,Missouri,Jefferson City,,,no Laurell Hamilton,"no sex,no violence",,,9999,True,False,False,False,False,False,False
South Central Correctional ,-12.819233,-50.657067,601,Missouri,Licking,,,,"""No Books Are Allowed""",,,0,False,False,False,False,False,False,False
Maryville Treatment Center,40.346966,-94.813873,602,Missouri,Maryville,,,,,,,9999,True,False,False,False,False,False,False
Potosi Correctional ,22.14266,-100.983018,603,Missouri,Mineral Point,,,,,,,9999,False,False,False,False,False,False,False
Moberly Corr. Ctr,39.362262,-92.440614,604,Missouri,Moberly,,,,,,,9999,False,False,False,False,True,False,False
MO Eastern Correctional,14.944283,108.886967,605,Missouri,Pacific,,,,,,,9999,True,True,False,False,False,False,False
Medical Center for Federal Prisoners,37.17758,-93.32373,606,Missouri,Springfield,,,,,,,9999,True,False,False,False,False,False,False
St. Genevieve County Jail,44.981413,-92.723731,607,Missouri,St. Genevieve,,,,,,,0,False,False,False,False,False,False,False
Western Correctional ,11.13,122.53,608,Missouri,St. Joseph,,,,,,,0,False,False,False,False,False,False,False
CCM St. Louis - Federal ,-6.796796,39.237449,609,Missouri,St. Louis,,,,,,,9999,False,False,False,False,False,False,False
Montana Women's Prison (MWP) ,45.774892,-108.495661,611,Montana,Billings,,,,,,,9999,False,False,False,True,False,False,False
Montana State Prison (MSP) ,46.382516,-112.800666,612,Montana,Deer Lodge,,,,,,,3,True,False,False,False,False,False,False
Dawson County Regional Prison,47.13083,-104.68519,613,Montana,Glendive,,,,,,,9999,False,False,False,False,False,False,False
Cascade County,-4.66667,55.5,614,Montana,Great Falls,,,,,,,9999,True,False,False,False,False,False,False
Crossroads Correctional ,38.849103,-77.130818,615,Montana,Shelby,,,"Mail will be returned to sender if contains oily stains, discolorations, crystallization or excessive 
wrapping/tape/string.",No stickers on books,,,9999,True,False,False,False,False,False,False
Montana State Hospital,46.180605,-112.793195,616,Montana,Warm Springs,,,,,,,9999,True,False,False,False,False,False,False
Lancaster County DOC,46.43777,20.1375,617,Nebraska,Lincoln,,,,,,,0,False,False,False,False,False,False,False
Diagnostic & Evaluation Center,-8.585242,116.111135,618,Nebraska,Lincoln,,,,,,,0,False,False,False,False,False,False,False
Nebraska State Prison,41.499671,-99.810075,619,Nebraska,Lincoln,,,,,,,0,False,False,False,False,False,False,False
Lincoln Correctional ,40.8,-96.66696,620,Nebraska,Lincoln,,,,,,,0,False,False,False,False,False,False,False
Omaha Correctional ,41.264998,-95.990742,621,Nebraska,Omaha,,,,,,,9999,False,False,False,False,False,False,False
Mountain View,37.393196,-122.074254,622,Nebraska,Spruce Pine,,,,,,,9999,True,False,False,False,False,False,False
Tecumseh State Correctional (TSCI) ,42.006321,-83.942758,623,Nebraska,Tecumseh,,Warden may keep certain Publications in Facility but inmate cannot possess,,,,,9999,True,False,False,False,False,False,False
Nebraska Correctional Facility for Women,44.790067,-93.538447,624,Nebraska,York,,No martial arts,,,,,9999,True,False,False,False,False,False,False
Northern NH Correctional ,44.906158,-72.191376,625,New Hampshire,Berlin,,,,,,,9999,False,False,False,False,False,False,False
NH State Prison for Men ,43.227048,-71.557692,626,New Hampshire,Concord,,,,,,,0,False,False,False,False,False,False,False
Stafford County DOC,38.42207,-77.40832,627,New Hampshire,Dover,,,,,,,9999,False,False,False,False,False,False,False
Manchester-Hillsborough CO,18.037405,-77.502783,629,New Hampshire,Manchester,,,,,,,9999,False,False,False,False,False,False,False
MCJ (MCDOC),11.233948,-72.493051,630,New Hampshire,Boscawen,,,No Violence,,,,9999,False,False,False,False,True,False,False
Adult Diagnostic & Treatment Center,40.590024,-74.272997,631,New Jersey,Avenal,,,,,,,9999,True,False,False,False,False,False,False
AC Wagner Youth Correctional ,42.081727,-87.782231,632,New Jersey,Bordentown,,,,,,,9999,True,False,False,False,False,False,False
South Woods State Prison,39.413176,-75.208221,633,New Jersey,Bridgeton,,,No Sex,,,,9999,False,False,False,False,True,False,False
Riverfront State Prison,9.255596,29.795189,634,New Jersey,Camden,,,,,,,0,False,False,False,False,False,False,False
Cape May Correctional ,38.940261,-74.907041,635,New Jersey,Cape May,,,,,,,9999,True,False,False,False,False,False,False
Mahan Correctional - Women,45.530122,-122.991515,636,New Jersey,Clinton,,,,,,,9999,False,False,False,False,False,False,False
Southern State Correctional,6.251044,36.581461,637,New Jersey,Delmont,,, No discolored or stained pages,"No Annotation, writing, underlining","Hardcover okay, must be under 3 pounds",,9999,True,False,False,False,False,False,True
Union Co Jail,34.715274,-81.6261,638,New Jersey,Elizabeth,,,,,,,9999,True,False,False,False,False,False,False
FCI Federal ,24.047019,84.072557,639,New Jersey,Fairton,,,,,,,9999,False,False,False,False,False,False,False
"FCI - Fort Dix, Joint Base MDL, PO Box 2000",37.969062,-121.665128,640,New Jersey,Fort Dix/Joint Base MDL,,,No Sex (Judgement call on art),,,,9999,False,False,False,False,False,False,True
Bergen County Jail,40.87383,-74.039008,642,New Jersey,Hackensack,,,,,,,0,False,False,False,False,False,False,False
Talbot Hall - Unit Harmony,29.791503,-90.801518,643,New Jersey,Kearny,,,,,,,9999,True,False,False,False,False,False,False
Bayside State Prison,39.240064,-74.957476,644,New Jersey,Leesburg,,,,,,,9999,True,False,False,False,False,False,False
Upstate CF,40.726322,-73.98645,645,New Jersey,Malone,,,,,,,9999,True,False,False,False,False,False,False
Middlesex Correctional ,40.573729,-74.503455,646,New Jersey,New Brunswick,,,,,,,9999,False,False,False,False,False,False,False
Northern State Prison,40.71275,-74.17313,647,New Jersey,Newark,,,,,,,9999,True,False,False,False,False,False,False
Passaic County Jail,40.912745,-74.173612,648,New Jersey,Paterson,,,,,,,0,False,False,False,False,False,False,False
East Jersey State Prison ,40.589866,-74.268936,649,New Jersey,Rahway,,,,,,,9999,False,False,False,False,False,False,False
Mercer County Correction Center,40.32936,-74.91945,650,New Jersey,Trenton,,,,,,,0,False,False,False,False,False,False,False
New Jersey State Prison P.O. Box 861,37.969062,-121.665128,651,New Jersey,Trenton,,,,,,,9999,False,False,False,False,False,False,False
Mid State CF,40.885361,-78.086197,652,New Jersey,Wrightstown,,,,,,,9999,False,False,False,False,True,False,False
SBI,12.316308,76.627732,653,New Jersey,West Trenton,,,,,,,9999,False,False,False,False,False,False,False
Garden State Youth,45.755768,4.832908,654,New Jersey,Yardville,,,,,,,9999,True,False,False,False,False,False,False
Yorksville Midstate,40.761914,-89.598826,655,New Jersey,Yorksville,,,,,,,9999,False,False,False,False,True,False,False
"FCI LaTuna, Federal Facility",-8.39234,124.05583,656,New Mexico,Anthony,,,,,,,9999,True,False,False,False,False,False,False
OCPF/MTC,50.481214,34.965155,657,New Mexico,Chaparral,,,,,,,9999,True,False,False,False,False,False,False
Cibola County Corrections / Western New Mexico,34.941919,-107.999635,658,New Mexico,Cibola County,,,,,,,0,False,False,False,False,False,False,False
Northeast New Mexico Detention Facility ,36.43546,-103.12455,659,New Mexico,Clayton,,,,,,,9999,True,False,False,False,False,False,False
Gallup,35.522787,-108.747405,660,New Mexico,Gallup,,,,,,,9999,False,False,False,False,False,True,False
Western NM Correctional Facility,11.13,122.53,661,New Mexico,Grants,,,,,,,9999,True,False,False,False,False,False,False
Lea County Correctional ,32.785343,-103.437844,662,New Mexico,Hobbs,,,,,,,9999,True,False,False,False,False,False,False
Southern New Mexico Correctional ,-16.652528,26.491397,663,New Mexico,Las Cruces,,Only send to chaplain,,,,,0,False,False,False,False,False,False,False
Central New Mexico Correctional ,15.061654,120.716849,664,New Mexico,Los Lunas,,,,,,,0,False,False,False,False,False,False,False
Penitentiary of New Mexico ,35.563132,-106.054072,665,New Mexico,Santa Fe,,,,,,,9999,False,False,False,False,False,False,False
Guadalupe County Correctional Facility,25.68041,-100.217239,666,New Mexico,Santa Rosa,,,,,,,0,False,False,False,False,False,False,False
Springer Woman's Facility,36.365967,-104.593368,667,New Mexico,Springer ,,,,,,,0,False,False,False,False,False,False,False
Albion Corr. Facility,42.24775,-84.757263,668,New York,Albion,,,,,,,9999,False,False,False,True,False,False,False
Orleans Correctional ,30.056708,-89.889852,669,New York,Albion,,,,,,,9999,False,False,False,True,False,False,False
Wende Correctional ,51.290493,13.531313,670,New York,Alden,,,,,,,9999,False,False,False,False,False,False,False
Altona Correctional ,53.56549,9.856285,671,New York,Altona,,,,,,,9999,False,False,False,False,False,False,False
Attica Correctional ,37.92037,23.9035,672,New York,Attica,,,,,,,9999,False,False,False,False,False,False,False
Wyoming Correctional ,43.001645,-107.55153,673,New York,Attica,,,,,,,9999,False,False,False,False,False,False,False
Auburn Correctional ,47.317254,-122.228761,674,New York,Auburn,,,,,,,9999,False,False,False,False,False,False,False
Buffalo Federal Detention Center,43.020975,-78.201078,675,New York,Batavia,,,,,,,9999,True,False,False,False,False,False,False
Fishkill Correctional ,41.536202,-73.895721,676,New York,Beacon,,Return address must be stamped,,,,,9999,False,False,False,False,False,False,False
Bedford Hills Correctional ,41.239228,-73.6896,677,New York,Bedford Hills,,,,,,,9999,False,False,False,True,False,False,False
Lakeview Shock Incarceration Correction ,42.43202,-75.86547,678,New York,Brocton,,,,,,,0,False,False,False,False,False,False,False
Metropolitan Detention Center,34.053534,-118.238486,679,New York,Brooklyn,,,,,,,9999,False,False,False,True,False,False,False
Psychiatric Center Hospital,31.511,-97.1985,680,New York,Buffalo,,,,,,,9999,True,False,False,False,False,False,False
Cape Vincent Correctional ,44.125739,-76.330767,681,New York,Cape Vincent,,,,,,,9999,True,False,False,False,False,False,False
Collins Correctional ,40.542844,-105.06543,682,New York,Collins,,,,,,,9999,False,False,False,False,False,False,False
Great Meadow Correctional(PO Box 51),50.751229,-3.407393,683,New York,Comstock,,,,,,,9999,False,False,False,False,False,False,False
Coxsackie Correctional ,42.357165,-73.803078,684,New York,Coxsackie,,,,,,,9999,False,False,False,True,False,False,False
Greene CF,6.986429,21.668827,685,New York,Coxsackie,,,,,,,9999,False,False,False,True,False,False,False
Clinton Correctional ,38.76511,-76.89831,686,New York,Dannemora,,,,,,,9999,True,True,False,False,False,False,False
Rikers Island,40.790125,-73.882657,687,New York,East Elmhurst,,,,,,,9999,True,False,False,False,False,False,False
Nassau County Jail,30.61104,-81.6311,688,New York,East Meadow,,,,,,,0,False,False,False,False,False,False,False
Elmira Correctional ,42.096729,-76.833198,689,New York,Elmira,,,,,,,9999,False,False,False,True,False,False,False
Sullivan Correctional ,38.2081,-91.16042,690,New York,Fallsburg,,,,,,,9999,False,False,False,True,False,False,False
Downstate Correctional ,41.5327,-73.945865,691,New York,Fishkill,,,,,,,9999,False,False,False,False,False,False,False
Camp Gabriels Correctional ,53.364616,-6.184245,692,New York,Gabriels,,,,,,,9999,False,False,False,True,False,False,False
GCF,37.863272,-84.660279,693,New York,Gouverneur,,,,,,,9999,True,False,False,False,False,False,False
Gowanda Correctional ,42.461288,-78.936407,694,New York,Gowanda,,,,,,,9999,True,False,False,False,False,False,False
Hudson Correctional,41.24006,-81.44067,695,New York,Hudson,,,,,,,9999,True,False,False,False,False,False,False
Indian Springs Correctional,33.353227,-86.76125,696,New York,Indian Springs,,,,,,,9999,True,False,False,False,False,False,False
Johnstown Correctional,40.32674,-78.92197,697,New York,Johnstown,,,,,,,9999,True,False,False,False,False,False,False
Cattaraugus,42.238266,-78.683934,698,New York,Little Valley,,,,,,,9999,True,False,False,False,False,False,False
Queensboro Corr. Fac.,40.750607,-73.94026,699,New York,Long Island City,,No news,No Magazines,,,,9999,True,False,False,False,True,False,False
Bare Hill Correctional ,9.595413,12.044718,700,New York,Malone,,,,,,,9999,False,False,False,True,False,False,False
Upstate Correctional ,44.869287,-74.314018,701,New York,Malone,,,No Magazines,,,,9999,False,False,False,False,False,False,False
Central NY Psychiatric Ctr,43.167598,-75.302984,702,New York,Marcy,,,,,,,9999,True,False,False,False,False,False,False
Marcy Correctional ,43.107898,-88.131368,703,New York,Marcy,,,,,,,9999,False,False,False,True,False,False,False
Mid-State Correctional ,39.998334,-74.583555,704,New York,Marcy,,,,,,,9999,True,False,False,False,False,False,False
Chautauqua County Jail,37.12847,-96.18745,705,New York,Mayville,,,,,,,0,False,False,False,False,False,False,False
Cayuga Correctional ,42.919494,-76.727982,706,New York,Moravia,,,,,,,9999,True,False,False,False,False,False,False
Ulster CF,6.986429,21.668827,707,New York,Napanoch,,,,,,,9999,True,True,False,False,False,False,False
Eastern Correctional ,-32.19228,26.501313,708,New York,Napanoch,,,,,,,9999,False,False,False,False,True,False,False
Metropolitan Correctional / Lincoln Correctional,26.122958,91.967629,709,New York,New York,,,,,,,9999,True,False,False,False,False,False,False
Riverview Correctional ,27.820475,-82.303571,710,New York,Ogdensburg,,,,,,,9999,False,False,False,False,False,False,False
Starc Bridgeview,45.701939,5.005536,711,New York,Ogdensburg,"Must call to verify, 315-394-6367, Mr. Stickles",,,"No Rape, Nothing sexually suggestive",No child violence,"must call to verify, 315-394-6367, mr. stickles",9999,False,False,False,False,True,False,True
Sing Sing Correctional Facility,41.151577,-73.868392,712,New York,Ossining,,,,,,,9999,False,False,False,False,False,False,True
FCI Otisville,24.047019,84.072557,713,New York,Otisville,,NO Composition Books,,,,,9999,False,False,False,False,False,False,False
Otisville Correctional ,41.470351,-74.539518,714,New York,Otisville,,,Magazines must not be more than 3 months old,,,,9999,True,False,False,False,False,False,False
Southport Correctional ,53.657447,-3.004251,715,New York,Pine City,,no News,,,,,9999,False,False,False,False,False,False,False
Creedmore Psychiatric Center,12.529476,78.205064,716,New York,Queens Village,,,,,,,9999,True,False,False,False,False,False,False
Adirondack Correctional ,43.360903,-111.241225,717,New York,Ray Brook,,,,,,,9999,False,False,False,False,False,False,False
Butler Correctional ,40.853708,-79.940229,718,New York,Red Creek,,,,,,,9999,False,False,False,True,False,False,False
Mohawk Correctional,41.011746,-74.66897,719,New York,Rome,,,,,,,9999,True,False,False,False,False,False,False
Oneida Correctional ,43.080492,-75.67231,720,New York,Rome,,,,,,,9999,True,False,False,False,True,False,False
Five Points Correctional ,39.558183,-84.184641,721,New York,Romulus,,,,,,,9999,False,False,False,False,False,False,False
Seaford County Jail,45.145908,-95.013124,722,New York,Seaford,,,,,,,0,False,False,False,False,False,False,False
Groveland Correctional / Livingston Correctional,42.676289,-77.825697,723,New York,Sonyea,,,,,,,9999,False,False,False,True,False,False,False
Camp Pharsalia Correctional ,15.855419,74.501096,724,New York,South Plymouth,,,,,,,9999,False,False,False,True,False,False,False
Arthur Kill Correctional ,29.682232,-93.89954,725,New York,Staten Island,,,,,,,9999,False,False,False,False,False,False,False
Green Haven Correctional ,41.588022,-73.724855,726,New York,Stormville,,,,,,,9999,False,False,False,False,False,False,False
Shawangunk Correctional ,41.63398,-74.25904,727,New York,Wallkill,,,"No how to books (electrical, computers, coding, etc.)",,,,9999,False,False,False,False,True,False,True
Mid-Orange,35.118338,-89.980371,728,New York,Warwick,,,,,,,9999,True,False,False,False,False,False,False
WCF,11.311927,-12.305597,729,New York,Watertown,,,,,,,9999,True,False,False,False,False,False,False
Mt. McGregor Correctional ,33.91667,35.66667,730,New York,Wilton,,,,,,,9999,True,False,False,False,False,False,False
Woodbourne Correctional ,40.20138,-74.887033,731,New York,Woodbourne,,, ,,,,9999,False,False,False,True,False,False,False
"Randolph Correctional, PO Box 4128",35.630594,-79.627104,732,North Carolina,Ashboro,,,,,,,9999,False,False,False,False,False,False,False
Craggy CC,35.610994,-82.438577,733,North Carolina,Asheville,"Send to:2992 Riverside Drive, PO Box closed",,"Letter must indicate ""mailroom has approved books"" or letter is DNS.
",,"DNS May-1, un-DNS 5-25-21 mike","send to:2992 riverside drive, po box closed",9999,False,False,False,False,False,False,False
Buncombe Correctional ,35.622968,-82.500326,734,North Carolina,Asheville,,,,,,,9999,False,False,False,True,False,False,False
Albemarle Correctional ,38.017994,-78.660003,735,North Carolina,Badin,,,,,,,9999,True,False,False,False,False,False,False
Pamlico Correctional ,35.160232,-76.770998,736,North Carolina,Bayboro,,"No Composition Books, no blank paper",,,,,9999,False,False,False,False,False,False,False
Western Correctional Center for Women (formerly Swannanoa CCW),35.61133,-82.37313,737,North Carolina,Black Mountain,Send to: 55 Lake Eden Road,,,,,send to: 55 lake eden road,9999,True,False,False,False,False,False,False
Caswell Corr. Ctr,-33.756211,150.737685,738,North Carolina,Blanch,,,,,,,9999,True,False,False,False,False,False,False
Watauga Co. Detention Ctr.,36.221129,-81.707085,739,North Carolina,Boone,,,,,,,9999,True,False,False,False,False,False,False
Franklin Correctional Center,37.566652,-78.474686,740,North Carolina,Bunn,,,,,,,9999,True,False,False,False,False,False,False
Pender Correctional ,34.542936,-77.896377,741,North Carolina,Burgaw,,,,,,,9999,False,False,False,False,False,False,True
FCI Butner / Low Security (PO Box 999),36.143894,-78.79994,742,North Carolina,Butner,,,,No Sex,No composition notebooks,,9999,True,False,False,False,False,False,False
FCI Butner/ Medium Security (PO Box 1000),36.14006,-78.804224,743,North Carolina,Butner,,,,No Sex,No composition notebooks,,9999,True,False,False,False,False,False,False
"Federal Medical Center,Box 1600",14.612264,121.091722,744,North Carolina,Butner,,,,No Sex,No composition notebooks,,9999,True,False,False,False,False,False,False
Granville Correctional Institution (formerly Polk) ,-33.834113,151.009502,745,North Carolina,Butner,Box 2500,,,No Sex,,box 2500,9999,True,False,False,False,False,False,False
Charlotte Correctional Center ,37.566652,-78.474686,746,North Carolina,Charlotte,,,,,,,9999,False,False,False,True,False,False,False
Mecklenburg County Jail,35.236548,-80.82891,747,North Carolina,Charlotte,,,,,,,0,False,False,False,False,False,False,False
Sampson Correctional ,35.040166,-78.375725,748,North Carolina,Clinton,,,,,,,9999,False,False,False,True,False,False,False
Tyrell Prison Work Farm,35.957312,-76.227886,749,North Carolina,Columbia,,,,,,,9999,True,False,False,False,False,False,False
Gaston Correctional Center,37.566652,-78.474686,750,North Carolina,Dallas,,,,,,,9999,False,False,False,False,False,False,False
Pasquotank Correctional ,36.361511,-76.310839,751,North Carolina,Elizabeth City,,,,,,,9999,False,False,False,True,False,False,False
Cumberland County Detention,39.41297,-75.26037,752,North Carolina,Fayetteville,,,,,,,9999,False,False,False,True,False,False,False
Neuse Correctional ,35.38792,-78.03684,753,North Carolina,Goldsboro,"Write: ""APPROVED MATERIAL"" on package.",,,,,"write: ""approved material"" on package.",9999,True,False,False,False,False,False,False
Orange Correction Center,40.767529,-111.945308,754,North Carolina,Hillborough,,,,,,,9999,True,False,False,False,False,False,False
"Richmond CI (formerly Morrison Correctional, name change 10-4-21)",-37.933892,145.192905,755,North Carolina,Hoffman,,,,No Sex,,,9999,True,False,False,False,False,False,False
Odom Correctional Institution ,43.635417,-88.706387,757,North Carolina,Jackson,,,,,,,9999,False,False,False,False,False,False,False
Duplin Correctional,34.964176,-77.932848,758,North Carolina,Kenansville,,,,No Sex,,,9999,True,False,False,False,False,False,False
Scotland Correctional ,56,-4,759,North Carolina,Laurinburg,,,,,,,9999,False,False,False,False,False,False,False
Caldwell Correctional,43.6591,-116.680967,760,North Carolina,Lenoir,,,,,,,9999,True,False,False,False,False,False,False
North Piedmont (Women),38.309137,-101.328273,761,North Carolina,Lexington,,,,,,,9999,True,False,False,False,False,False,False
Harnett Correctional ,35.38813,-78.80117,762,North Carolina,Lillington,,,,,,,9999,True,False,False,False,False,False,False
Lincon CC,45.118906,2.226161,763,North Carolina,Lincolnton,,,,,,,9999,False,False,False,False,False,False,False
Lumberton Correctional ,39.96595,-74.80516,764,North Carolina,Lumberton,"Do Not Use PO BOX, send to 75 Legend Rd",,,,,"do not use po box, send to 75 legend rd",9999,True,False,False,False,False,False,False
CNYPC,43.167598,-75.302984,765,North Carolina,Marcy,,,,,,,9999,True,False,False,False,False,False,False
Eastern Correctional  P.O. Box 215 ,37.969062,-121.665128,766,North Carolina,Maury,,,,,,,9999,True,False,False,False,False,False,False
Maury Correctional Inst.P.O.B.506,35.625119,-87.082386,767,North Carolina,Maury,,,,,Banned Title-Rogue Lawyer,,9999,True,False,False,False,False,False,False
"Greene CI, P.O. Box 39",40.079147,-75.777676,768,North Carolina,Maury,,,No violence,No Sex,,,9999,True,False,False,False,False,False,False
Foothills Correctional ,35.679301,-81.692315,769,North Carolina,Morganton,,,,,,,9999,False,False,False,False,False,False,False
Western Youth Institute,40.22517,-74.76621,770,North Carolina,Morganton,CLOSED PERMANENTLY 1-1-2014,,,,,closed permanently 1-1-2014,9999,False,False,False,False,False,False,False
Nash Correctional ,35.969654,-77.982357,771,North Carolina,Nashville,,,,,,,0,False,False,False,False,False,False,False
Carteret Correctional Center,37.566652,-78.474686,772,North Carolina,Newport,,,"up to 11""long","up to 2"" thick",,,9999,False,False,False,False,True,False,False
Warren Correctional ,42.514226,-83.027928,773,North Carolina,Norlina,,,Banned Book:No One Is Safe,,Mailing address is in Norlina,,9999,False,False,False,False,True,False,False
Wilkes Correctional Center,37.566652,-78.474686,774,North Carolina,North Wilkesboro,,,,,,,9999,False,False,False,False,True,False,False
Anson Correctional ,34.965145,-80.107228,775,North Carolina,Polkton,,,,,,,9999,False,False,False,False,False,False,False
Brown Creek / Scotland Correctional (PO Box 310),45.102837,-77.956499,776,North Carolina,Polkton,,,,,,,9999,False,False,False,False,False,False,False
Lanesboro Correctional(PO Box250 &280),43.718629,-91.974327,777,North Carolina,Polkton,,,,,,,9999,False,False,False,False,False,False,False
Hoke Correctional ,35.022652,-79.233106,778,North Carolina,Raeford,,,,,,,9999,False,False,False,True,False,False,False
Central Prison,35.776867,-78.654777,780,North Carolina,Raleigh,"Send to:4285 Mail Service Center, Raleigh, NC 27699",,No Composition Books,No Blank Greeting Cards,No larger than 8 1/2 x 11 x 2,"send to:4285 mail service center, raleigh, nc 27699",9999,True,False,False,False,False,False,False
Public Safety Center,38.663596,-77.585994,781,North Carolina,Raleigh,,,,,,,9999,True,False,False,False,False,False,False
North Carolina Correctional Institution for Women,35.765394,-78.621221,782,North Carolina,Raleigh,,,Do not put Prison Book Program in return address. Only use Lucy Parsons Bookstore,,,,9999,True,False,False,False,False,False,False
Sanford C.C.,28.80055,-81.27312,783,North Carolina,Sanford,,,,,,,9999,True,False,False,False,False,False,False
Piedmont Correctional ,37.824085,-122.230094,784,North Carolina,Salisbury,,,,,,,9999,False,False,False,True,False,False,False
Johnston Correctional,35.513217,-78.365643,785,North Carolina,Smithfield,,,,,,,9999,True,False,False,False,False,False,False
Rutherford Correctional,40.82529,-74.109718,786,North Carolina,Spindale,,,,,,,9999,True,False,False,False,False,False,False
Avery / Mitchell Correctional  600 amity park Rd,40.299894,-75.751453,787,North Carolina,Spruce Pine,,,,,,,9999,True,False,False,False,False,False,False
Mountain View Correctional  545 Amity Park Rd,40.299894,-75.751453,788,North Carolina,Spruce Pine,,,,,,,0,False,False,False,False,False,False,False
Hyde Corr. Inst.,51.653471,-0.201903,789,North Carolina,Swan Quarter,,,,,,,9999,True,False,False,False,False,False,False
Tabor Correctional ,46.240183,15.020237,790,North Carolina,Tabor City,,,,,,,9999,True,False,False,False,True,False,False
Alexander Correctional ,35.926303,-81.173647,792,North Carolina,Taylorsville,,,,,,,0,False,False,False,False,False,False,False
Southern Correctional Institution,-15.5,35,794,North Carolina,Troy,,,,,,,9999,False,True,False,False,False,False,True
Craven Correctional,35.228147,-77.144537,795,North Carolina,Vanceboro,,,,,,,9999,True,False,False,False,False,False,False
Columbus CC,39.98072,-82.985586,796,North Carolina,Whiteville,,,,,,,9999,True,False,False,False,False,False,False
Bertie Correctional ,36.070105,-76.930615,797,North Carolina,Windsor,,,,,,,9999,True,False,False,False,False,False,False
"Rivers CI (fed, by GEO)",36.21237,-81.680792,798,North Carolina,Winton,,,,,,,9999,True,False,False,False,False,False,False
Forsyth Correctional,36.128399,-80.299845,799,North Carolina,Winston-Salem,,,,,,,9999,True,False,False,False,False,False,False
Caswell Correctional ,36.393527,-79.333609,800,North Carolina,Yanceyville,,,,,,,9999,True,False,False,False,False,False,False
New Hanover Correctional Center,34.266523,-77.923015,801,North Carolina,Wilmington,,,No gangs,,,,9999,True,False,False,False,False,False,False
Missouri River Correctional ,38.623266,-90.464242,802,North Dakota,Bismarck,,,,,,,9999,False,False,False,False,False,False,False
North Dakota State Prison,47.471495,-100.469096,803,North Dakota,Bismarck,,,,,,,9999,True,False,False,False,False,False,False
James River Correctional Institution,4.8541,8.2951,804,North Dakota,Jamestown,,,,,,,9999,True,False,False,False,False,False,False
Lincoln Medium,40.8,-96.66696,805,Ohio,Amerst,,,,,,,9999,True,False,False,False,False,False,False
NCI,8.452041,-76.778447,806,Ohio,Caldwell,,,,,,,0,False,False,False,False,False,False,False
Ross CI,52.041214,-9.53144,807,Ohio,Chillicothe,,,,,,,9999,True,False,False,False,False,False,False
River City Correctional,5.574595,8.39357,808,Ohio,Cincinatti,,,,,,,9999,True,False,False,False,False,False,False
Cleveland County Jail,35.21954,-97.44206,809,Ohio,Cleveland,,,,,,,0,False,False,False,False,False,False,False
Corrections Medical Center,29.98852,-82.35821,810,Ohio,Columbus,,,,,,,9999,False,True,False,False,False,False,True
Lake Erie Correctional ,42.622801,-79.076532,812,Ohio,Conneaut,,,,,,,9999,True,False,False,False,False,True,False
Grafton Correctional (GCI) ,42.20704,-71.68562,814,Ohio,Grafton,,,,,,,0,False,False,False,False,False,False,False
